[
  {
    "name": "Barter Island LRRS",
    "city": "Barter Island",
    "country": "United States",
    "IATA": "BTI",
    "ICAO": "PABA",
    "lat": "70.1340026855",
    "lon": "-143.582000732",
    "timezone": "-9"
  },
  {
    "name": "Wainwright Air Station",
    "city": "Fort Wainwright",
    "country": "United States",
    "IATA": "\\N",
    "ICAO": "PAWT",
    "lat": "70.61340332",
    "lon": "-159.8600006",
    "timezone": "-9"
  },
  {
    "name": "Cape Lisburne LRRS",
    "city": "Cape Lisburne",
    "country": "United States",
    "IATA": "LUR",
    "ICAO": "PALU",
    "lat": "68.87509918",
    "lon": "-166.1100006",
    "timezone": "-9"
  },
  {
    "name": "Point Lay LRRS",
    "city": "Point Lay",
    "country": "United States",
    "IATA": "PIZ",
    "ICAO": "PPIZ",
    "lat": "69.73290253",
    "lon": "-163.0050049",
    "timezone": "-9"
  },
  {
    "name": "Hilo Intl",
    "city": "Hilo",
    "country": "United States",
    "IATA": "ITO",
    "ICAO": "PHTO",
    "lat": "19.721399307250977",
    "lon": "-155.04800415039062",
    "timezone": "-10"
  },
  {
    "name": "Orlando Executive",
    "city": "Orlando",
    "country": "United States",
    "IATA": "ORL",
    "ICAO": "KORL",
    "lat": "28.5455",
    "lon": "-81.332901",
    "timezone": "-5"
  },
  {
    "name": "Bettles",
    "city": "Bettles",
    "country": "United States",
    "IATA": "BTT",
    "ICAO": "PABT",
    "lat": "66.91390228",
    "lon": "-151.529007",
    "timezone": "-9"
  },
  {
    "name": "Clear",
    "city": "Clear Mews",
    "country": "United States",
    "IATA": "\\N",
    "ICAO": "PACL",
    "lat": "64.301201",
    "lon": "-149.119995",
    "timezone": "-9"
  },
  {
    "name": "Indian Mountain LRRS",
    "city": "Indian Mountains",
    "country": "United States",
    "IATA": "UTO",
    "ICAO": "PAIM",
    "lat": "65.99279785",
    "lon": "-153.7039948",
    "timezone": "-9"
  },
  {
    "name": "Fort Yukon",
    "city": "Fort Yukon",
    "country": "United States",
    "IATA": "FYU",
    "ICAO": "PFYU",
    "lat": "66.57150268554688",
    "lon": "-145.25",
    "timezone": "-9"
  },
  {
    "name": "Sparrevohn LRRS",
    "city": "Sparrevohn",
    "country": "United States",
    "IATA": "SVW",
    "ICAO": "PASV",
    "lat": "61.09740067",
    "lon": "-155.5740051",
    "timezone": "-9"
  },
  {
    "name": "Bryant Army Heliport",
    "city": "Fort Richardson",
    "country": "United States",
    "IATA": "FRN",
    "ICAO": "PAFR",
    "lat": "61.26639938",
    "lon": "-149.6529999",
    "timezone": "-9"
  },
  {
    "name": "Tatalina LRRS",
    "city": "Tatalina",
    "country": "United States",
    "IATA": "TLJ",
    "ICAO": "PATL",
    "lat": "62.894401550299996",
    "lon": "-155.977005005",
    "timezone": "-9"
  },
  {
    "name": "Cape Romanzof LRRS",
    "city": "Cape Romanzof",
    "country": "United States",
    "IATA": "CZF",
    "ICAO": "PACZ",
    "lat": "61.78030014",
    "lon": "-166.0390015",
    "timezone": "-9"
  },
  {
    "name": "Laurence G Hanscom Field",
    "city": "Bedford",
    "country": "United States",
    "IATA": "BED",
    "ICAO": "KBED",
    "lat": "42.47000122",
    "lon": "-71.28900146",
    "timezone": "-5"
  },
  {
    "name": "St Paul Island",
    "city": "St. Paul Island",
    "country": "United States",
    "IATA": "SNP",
    "ICAO": "PASN",
    "lat": "57.167301177978516",
    "lon": "-170.22000122070312",
    "timezone": "-9"
  },
  {
    "name": "Cape Newenham LRRS",
    "city": "Cape Newenham",
    "country": "United States",
    "IATA": "EHM",
    "ICAO": "PAEH",
    "lat": "58.646400451699996",
    "lon": "-162.06300354",
    "timezone": "-9"
  },
  {
    "name": "St George",
    "city": "Point Barrow",
    "country": "United States",
    "IATA": "STG",
    "ICAO": "PAPB",
    "lat": "56.578300476100004",
    "lon": "-169.662002563",
    "timezone": "-9"
  },
  {
    "name": "Iliamna",
    "city": "Iliamna",
    "country": "United States",
    "IATA": "ILI",
    "ICAO": "PAIL",
    "lat": "59.75439835",
    "lon": "-154.9109955",
    "timezone": "-9"
  },
  {
    "name": "Platinum",
    "city": "Port Moller",
    "country": "United States",
    "IATA": "PTU",
    "ICAO": "PAPM",
    "lat": "59.01139831542969",
    "lon": "-161.82000732421875",
    "timezone": "-9"
  },
  {
    "name": "Big Mountain",
    "city": "Big Mountain",
    "country": "United States",
    "IATA": "BMX",
    "ICAO": "PABM",
    "lat": "59.3611984253",
    "lon": "-155.259002686",
    "timezone": "-9"
  },
  {
    "name": "Oscoda Wurtsmith",
    "city": "Oscoda",
    "country": "United States",
    "IATA": "OSC",
    "ICAO": "KOSC",
    "lat": "44.451599",
    "lon": "-83.394096",
    "timezone": "-5"
  },
  {
    "name": "Marina Municipal",
    "city": "Fort Ord",
    "country": "United States",
    "IATA": "OAR",
    "ICAO": "KOAR",
    "lat": "36.68190002",
    "lon": "-121.762001",
    "timezone": "-8"
  },
  {
    "name": "Sacramento Mather",
    "city": "Sacramento",
    "country": "United States",
    "IATA": "MHR",
    "ICAO": "KMHR",
    "lat": "38.55390167",
    "lon": "-121.2979965",
    "timezone": "-8"
  },
  {
    "name": "Bicycle Lake Army Air Field",
    "city": "Fort Irwin",
    "country": "United States",
    "IATA": "BYS",
    "ICAO": "KBYS",
    "lat": "35.2804985046",
    "lon": "-116.629997253",
    "timezone": "-8"
  },
  {
    "name": "Twentynine Palms (Self)",
    "city": "Twenty Nine Palms",
    "country": "United States",
    "IATA": "\\N",
    "ICAO": "KNXP",
    "lat": "34.2961998",
    "lon": "-116.1620026",
    "timezone": "-8"
  },
  {
    "name": "Fort Smith Regional",
    "city": "Fort Smith",
    "country": "United States",
    "IATA": "FSM",
    "ICAO": "KFSM",
    "lat": "35.33660125732422",
    "lon": "-94.36740112304688",
    "timezone": "-6"
  },
  {
    "name": "Merrill Field",
    "city": "Anchorage",
    "country": "United States",
    "IATA": "MRI",
    "ICAO": "PAMR",
    "lat": "61.2135009765625",
    "lon": "-149.843994140625",
    "timezone": "-9"
  },
  {
    "name": "Grants-Milan Municipal",
    "city": "Grants",
    "country": "United States",
    "IATA": "GNT",
    "ICAO": "KGNT",
    "lat": "35.167301178",
    "lon": "-107.902000427",
    "timezone": "-7"
  },
  {
    "name": "Ponca City Regional",
    "city": "Ponca City",
    "country": "United States",
    "IATA": "PNC",
    "ICAO": "KPNC",
    "lat": "36.73199844",
    "lon": "-97.09980011",
    "timezone": "-6"
  },
  {
    "name": "Hunter Army Air Field",
    "city": "Hunter Aaf",
    "country": "United States",
    "IATA": "SVN",
    "ICAO": "KSVN",
    "lat": "32.00999832",
    "lon": "-81.14569855",
    "timezone": "-5"
  },
  {
    "name": "Grand Forks Intl",
    "city": "Grand Forks",
    "country": "United States",
    "IATA": "GFK",
    "ICAO": "KGFK",
    "lat": "47.949299",
    "lon": "-97.176102",
    "timezone": "-6"
  },
  {
    "name": "Whiting Field Naval Air Station – North",
    "city": "Milton",
    "country": "United States",
    "IATA": "NSE",
    "ICAO": "KNSE",
    "lat": "30.7241993",
    "lon": "-87.02189636",
    "timezone": "-6"
  },
  {
    "name": "Hana",
    "city": "Hana",
    "country": "United States",
    "IATA": "HNM",
    "ICAO": "PHHN",
    "lat": "20.79560089111328",
    "lon": "-156.01400756835938",
    "timezone": "-10"
  },
  {
    "name": "Ernest A. Love Field",
    "city": "Prescott",
    "country": "United States",
    "IATA": "PRC",
    "ICAO": "KPRC",
    "lat": "34.65449905",
    "lon": "-112.4199982",
    "timezone": "-7"
  },
  {
    "name": "Trenton Mercer",
    "city": "Trenton",
    "country": "United States",
    "IATA": "TTN",
    "ICAO": "KTTN",
    "lat": "40.27669906616211",
    "lon": "-74.8134994506836",
    "timezone": "-5"
  },
  {
    "name": "General Edward Lawrence Logan Intl",
    "city": "Boston",
    "country": "United States",
    "IATA": "BOS",
    "ICAO": "KBOS",
    "lat": "42.36429977",
    "lon": "-71.00520325",
    "timezone": "-5"
  },
  {
    "name": "Travis Air Force Base",
    "city": "Fairfield",
    "country": "United States",
    "IATA": "SUU",
    "ICAO": "KSUU",
    "lat": "38.262699127197",
    "lon": "-121.92700195312",
    "timezone": "-8"
  },
  {
    "name": "Griffiss Intl",
    "city": "Rome",
    "country": "United States",
    "IATA": "RME",
    "ICAO": "KRME",
    "lat": "43.23379898",
    "lon": "-75.40699768",
    "timezone": "-5"
  },
  {
    "name": "Wendover",
    "city": "Wendover",
    "country": "United States",
    "IATA": "ENV",
    "ICAO": "KENV",
    "lat": "40.7187004089",
    "lon": "-114.03099823",
    "timezone": "-7"
  },
  {
    "name": "Mobile Downtown",
    "city": "Mobile",
    "country": "United States",
    "IATA": "BFM",
    "ICAO": "KBFM",
    "lat": "30.626800537100003",
    "lon": "-88.06809997559999",
    "timezone": "-6"
  },
  {
    "name": "Metropolitan Oakland Intl",
    "city": "Oakland",
    "country": "United States",
    "IATA": "OAK",
    "ICAO": "KOAK",
    "lat": "37.721298",
    "lon": "-122.221001",
    "timezone": "-8"
  },
  {
    "name": "Eppley Airfield",
    "city": "Omaha",
    "country": "United States",
    "IATA": "OMA",
    "ICAO": "KOMA",
    "lat": "41.3032",
    "lon": "-95.894096",
    "timezone": "-6"
  },
  {
    "name": "Port Angeles Cgas",
    "city": "Port Angeles",
    "country": "United States",
    "IATA": "\\N",
    "ICAO": "KNOW",
    "lat": "48.14149856567383",
    "lon": "-123.41400146484375",
    "timezone": "-8"
  },
  {
    "name": "Kahului",
    "city": "Kahului",
    "country": "United States",
    "IATA": "OGG",
    "ICAO": "PHOG",
    "lat": "20.8986",
    "lon": "-156.429993",
    "timezone": "-10"
  },
  {
    "name": "Wichita Eisenhower National",
    "city": "Wichita",
    "country": "United States",
    "IATA": "ICT",
    "ICAO": "KICT",
    "lat": "37.649899",
    "lon": "-97.433098",
    "timezone": "-6"
  },
  {
    "name": "Kansas City Intl",
    "city": "Kansas City",
    "country": "United States",
    "IATA": "MCI",
    "ICAO": "KMCI",
    "lat": "39.2976",
    "lon": "-94.713898",
    "timezone": "-6"
  },
  {
    "name": "Dane County Regional Truax Field",
    "city": "Madison",
    "country": "United States",
    "IATA": "MSN",
    "ICAO": "KMSN",
    "lat": "43.13990020751953",
    "lon": "-89.3375015258789",
    "timezone": "-6"
  },
  {
    "name": "Dillingham",
    "city": "Dillingham",
    "country": "United States",
    "IATA": "DLG",
    "ICAO": "PADL",
    "lat": "59.04470062",
    "lon": "-158.5050049",
    "timezone": "-9"
  },
  {
    "name": "Boone County",
    "city": "Harrison",
    "country": "United States",
    "IATA": "HRO",
    "ICAO": "KHRO",
    "lat": "36.26150131225586",
    "lon": "-93.15470123291016",
    "timezone": "-6"
  },
  {
    "name": "Phoenix Sky Harbor Intl",
    "city": "Phoenix",
    "country": "United States",
    "IATA": "PHX",
    "ICAO": "KPHX",
    "lat": "33.43429946899414",
    "lon": "-112.01200103759766",
    "timezone": "-7"
  },
  {
    "name": "Bangor Intl",
    "city": "Bangor",
    "country": "United States",
    "IATA": "BGR",
    "ICAO": "KBGR",
    "lat": "44.80739974975586",
    "lon": "-68.8281021118164",
    "timezone": "-5"
  },
  {
    "name": "Fort Lauderdale Executive",
    "city": "Fort Lauderdale",
    "country": "United States",
    "IATA": "FXE",
    "ICAO": "KFXE",
    "lat": "26.1972999573",
    "lon": "-80.1707000732",
    "timezone": "-5"
  },
  {
    "name": "East Texas Regional",
    "city": "Longview",
    "country": "United States",
    "IATA": "GGG",
    "ICAO": "KGGG",
    "lat": "32.38399887084961",
    "lon": "-94.71150207519531",
    "timezone": "-6"
  },
  {
    "name": "Anderson Regional",
    "city": "Andersen",
    "country": "United States",
    "IATA": "AND",
    "ICAO": "KAND",
    "lat": "34.4945983887",
    "lon": "-82.70939636230001",
    "timezone": "-5"
  },
  {
    "name": "Spokane Intl",
    "city": "Spokane",
    "country": "United States",
    "IATA": "GEG",
    "ICAO": "KGEG",
    "lat": "47.61989974975586",
    "lon": "-117.53399658203125",
    "timezone": "-8"
  },
  {
    "name": "North Perry",
    "city": "Hollywood",
    "country": "United States",
    "IATA": "HWO",
    "ICAO": "KHWO",
    "lat": "26.0012",
    "lon": "-80.2407",
    "timezone": "-5"
  },
  {
    "name": "San Francisco Intl",
    "city": "San Francisco",
    "country": "United States",
    "IATA": "SFO",
    "ICAO": "KSFO",
    "lat": "37.61899948120117",
    "lon": "-122.375",
    "timezone": "-8"
  },
  {
    "name": "Cut Bank Intl",
    "city": "Cutbank",
    "country": "United States",
    "IATA": "CTB",
    "ICAO": "KCTB",
    "lat": "48.6083984375",
    "lon": "-112.375999451",
    "timezone": "-7"
  },
  {
    "name": "Acadiana Regional",
    "city": "Louisiana",
    "country": "United States",
    "IATA": "ARA",
    "ICAO": "KARA",
    "lat": "30.0378",
    "lon": "-91.883904",
    "timezone": "-6"
  },
  {
    "name": "Gainesville Regional",
    "city": "Gainesville",
    "country": "United States",
    "IATA": "GNV",
    "ICAO": "KGNV",
    "lat": "29.6900997162",
    "lon": "-82.2717971802",
    "timezone": "-5"
  },
  {
    "name": "Memphis Intl",
    "city": "Memphis",
    "country": "United States",
    "IATA": "MEM",
    "ICAO": "KMEM",
    "lat": "35.04240036010742",
    "lon": "-89.97669982910156",
    "timezone": "-6"
  },
  {
    "name": "Bisbee Douglas Intl",
    "city": "Douglas",
    "country": "United States",
    "IATA": "DUG",
    "ICAO": "KDUG",
    "lat": "31.4689998627",
    "lon": "-109.603996277",
    "timezone": "-7"
  },
  {
    "name": "Allen Army Airfield",
    "city": "Delta Junction",
    "country": "United States",
    "IATA": "BIG",
    "ICAO": "PABI",
    "lat": "63.9944992065",
    "lon": "-145.722000122",
    "timezone": "-9"
  },
  {
    "name": "TSTC Waco",
    "city": "Waco",
    "country": "United States",
    "IATA": "CNW",
    "ICAO": "KCNW",
    "lat": "31.637800216699997",
    "lon": "-97.0740966797",
    "timezone": "-6"
  },
  {
    "name": "Annette Island",
    "city": "Annette Island",
    "country": "United States",
    "IATA": "ANN",
    "ICAO": "PANT",
    "lat": "55.04240036010742",
    "lon": "-131.57200622558594",
    "timezone": "-9"
  },
  {
    "name": "Caribou Municipal",
    "city": "Caribou",
    "country": "United States",
    "IATA": "CAR",
    "ICAO": "KCAR",
    "lat": "46.871498107899995",
    "lon": "-68.0178985596",
    "timezone": "-5"
  },
  {
    "name": "Little Rock Air Force Base",
    "city": "Jacksonville",
    "country": "United States",
    "IATA": "LRF",
    "ICAO": "KLRF",
    "lat": "34.916900634799994",
    "lon": "-92.14969635010002",
    "timezone": "-6"
  },
  {
    "name": "Redstone Army Air Field",
    "city": "Redstone",
    "country": "United States",
    "IATA": "HUA",
    "ICAO": "KHUA",
    "lat": "34.67869949",
    "lon": "-86.68479919",
    "timezone": "-6"
  },
  {
    "name": "Pope Field",
    "city": "Fort Bragg",
    "country": "United States",
    "IATA": "POB",
    "ICAO": "KPOB",
    "lat": "35.1708984375",
    "lon": "-79.014503479004",
    "timezone": "-5"
  },
  {
    "name": "Dalhart Municipal",
    "city": "Dalhart",
    "country": "United States",
    "IATA": "DHT",
    "ICAO": "KDHT",
    "lat": "36.0225982666",
    "lon": "-102.54699707",
    "timezone": "-6"
  },
  {
    "name": "DLF",
    "city": "Del Rio",
    "country": "United States",
    "IATA": "DLF",
    "ICAO": "KDLF",
    "lat": "29.359501",
    "lon": "-100.778002",
    "timezone": "-6"
  },
  {
    "name": "Los Angeles Intl",
    "city": "Los Angeles",
    "country": "United States",
    "IATA": "LAX",
    "ICAO": "KLAX",
    "lat": "33.94250107",
    "lon": "-118.4079971",
    "timezone": "-8"
  },
  {
    "name": "Anniston Regional",
    "city": "Anniston",
    "country": "United States",
    "IATA": "ANB",
    "ICAO": "KANB",
    "lat": "33.5882",
    "lon": "-85.8581",
    "timezone": "-6"
  },
  {
    "name": "Cleveland Hopkins Intl",
    "city": "Cleveland",
    "country": "United States",
    "IATA": "CLE",
    "ICAO": "KCLE",
    "lat": "41.4117012024",
    "lon": "-81.8498001099",
    "timezone": "-5"
  },
  {
    "name": "Dover Air Force Base",
    "city": "Dover",
    "country": "United States",
    "IATA": "DOV",
    "ICAO": "KDOV",
    "lat": "39.12950134",
    "lon": "-75.46600342",
    "timezone": "-5"
  },
  {
    "name": "Cincinnati Northern Kentucky Intl",
    "city": "Cincinnati",
    "country": "United States",
    "IATA": "CVG",
    "ICAO": "KCVG",
    "lat": "39.0488014221",
    "lon": "-84.6678009033",
    "timezone": "-5"
  },
  {
    "name": "Tipton",
    "city": "Fort Meade",
    "country": "United States",
    "IATA": "FME",
    "ICAO": "KFME",
    "lat": "39.08539962769999",
    "lon": "-76.7593994141",
    "timezone": "-5"
  },
  {
    "name": "China Lake Naws (Armitage Field)",
    "city": "China Lake",
    "country": "United States",
    "IATA": "\\N",
    "ICAO": "KNID",
    "lat": "35.6853981",
    "lon": "-117.6920013",
    "timezone": "-8"
  },
  {
    "name": "Huron Regional",
    "city": "Huron",
    "country": "United States",
    "IATA": "HON",
    "ICAO": "KHON",
    "lat": "44.38520050048828",
    "lon": "-98.22850036621094",
    "timezone": "-6"
  },
  {
    "name": "Juneau Intl",
    "city": "Juneau",
    "country": "United States",
    "IATA": "JNU",
    "ICAO": "PAJN",
    "lat": "58.35499954223633",
    "lon": "-134.5760040283203",
    "timezone": "-9"
  },
  {
    "name": "Lafayette Regional",
    "city": "Lafayette",
    "country": "United States",
    "IATA": "LFT",
    "ICAO": "KLFT",
    "lat": "30.20529938",
    "lon": "-91.98760223",
    "timezone": "-6"
  },
  {
    "name": "Newark Liberty Intl",
    "city": "Newark",
    "country": "United States",
    "IATA": "EWR",
    "ICAO": "KEWR",
    "lat": "40.692501068115234",
    "lon": "-74.168701171875",
    "timezone": "-5"
  },
  {
    "name": "Boise Air Terminal/Gowen Field",
    "city": "Boise",
    "country": "United States",
    "IATA": "BOI",
    "ICAO": "KBOI",
    "lat": "43.5644",
    "lon": "-116.223",
    "timezone": "-7"
  },
  {
    "name": "Creech Air Force Base",
    "city": "Indian Springs",
    "country": "United States",
    "IATA": "INS",
    "ICAO": "KINS",
    "lat": "36.587200164799995",
    "lon": "-115.672996521",
    "timezone": "-8"
  },
  {
    "name": "Garden City Regional",
    "city": "Garden City",
    "country": "United States",
    "IATA": "GCK",
    "ICAO": "KGCK",
    "lat": "37.9275016785",
    "lon": "-100.723999023",
    "timezone": "-6"
  },
  {
    "name": "Minot Intl",
    "city": "Minot",
    "country": "United States",
    "IATA": "MOT",
    "ICAO": "KMOT",
    "lat": "48.2593994140625",
    "lon": "-101.27999877929688",
    "timezone": "-6"
  },
  {
    "name": "Wheeler Army Airfield",
    "city": "Wahiawa",
    "country": "United States",
    "IATA": "HHI",
    "ICAO": "PHHI",
    "lat": "21.48349953",
    "lon": "-158.0399933",
    "timezone": "-10"
  },
  {
    "name": "Maxwell Air Force Base",
    "city": "Montgomery",
    "country": "United States",
    "IATA": "MXF",
    "ICAO": "KMXF",
    "lat": "32.3829",
    "lon": "-86.365799",
    "timezone": "-6"
  },
  {
    "name": "Robinson Army Air Field",
    "city": "Robinson",
    "country": "United States",
    "IATA": "\\N",
    "ICAO": "KRBM",
    "lat": "34.85010147",
    "lon": "-92.30020142",
    "timezone": "-6"
  },
  {
    "name": "Dallas Love Field",
    "city": "Dallas",
    "country": "United States",
    "IATA": "DAL",
    "ICAO": "KDAL",
    "lat": "32.847099",
    "lon": "-96.851799",
    "timezone": "-6"
  },
  {
    "name": "Butts AAF (Fort Carson) Air Field",
    "city": "Fort Carson",
    "country": "United States",
    "IATA": "FCS",
    "ICAO": "KFCS",
    "lat": "38.67839813",
    "lon": "-104.7570038",
    "timezone": "-7"
  },
  {
    "name": "Helena Regional",
    "city": "Helena",
    "country": "United States",
    "IATA": "HLN",
    "ICAO": "KHLN",
    "lat": "46.6068000793457",
    "lon": "-111.98300170898438",
    "timezone": "-7"
  },
  {
    "name": "Miramar Marine Corps Air Station – Mitscher Field",
    "city": "Miramar",
    "country": "United States",
    "IATA": "NKX",
    "ICAO": "KNKX",
    "lat": "32.86840057",
    "lon": "-117.1429977",
    "timezone": "-8"
  },
  {
    "name": "Luke Air Force Base",
    "city": "Phoenix",
    "country": "United States",
    "IATA": "LUF",
    "ICAO": "KLUF",
    "lat": "33.534999847399995",
    "lon": "-112.383003235",
    "timezone": "-7"
  },
  {
    "name": "Hurlburt Field",
    "city": "Mary Esther",
    "country": "United States",
    "IATA": "\\N",
    "ICAO": "KHRT",
    "lat": "30.427799224853516",
    "lon": "-86.68930053710938",
    "timezone": "-6"
  },
  {
    "name": "Jack Northrop Field Hawthorne Municipal",
    "city": "Hawthorne",
    "country": "United States",
    "IATA": "HHR",
    "ICAO": "KHHR",
    "lat": "33.922798",
    "lon": "-118.334999",
    "timezone": "-8"
  },
  {
    "name": "Houlton Intl",
    "city": "Houlton",
    "country": "United States",
    "IATA": "HUL",
    "ICAO": "KHUL",
    "lat": "46.1231002808",
    "lon": "-67.792098999",
    "timezone": "-5"
  },
  {
    "name": "Vance Air Force Base",
    "city": "Enid",
    "country": "United States",
    "IATA": "END",
    "ICAO": "KEND",
    "lat": "36.339199066199996",
    "lon": "-97.9164962769",
    "timezone": "-6"
  },
  {
    "name": "Point Mugu Naval Air Station (Naval Base Ventura Co)",
    "city": "Point Mugu",
    "country": "United States",
    "IATA": "NTD",
    "ICAO": "KNTD",
    "lat": "34.120300293",
    "lon": "-119.121002197",
    "timezone": "-8"
  },
  {
    "name": "Edwards Air Force Base",
    "city": "Edwards Afb",
    "country": "United States",
    "IATA": "EDW",
    "ICAO": "KEDW",
    "lat": "34.905399",
    "lon": "-117.884003",
    "timezone": "-8"
  },
  {
    "name": "Lake Charles Regional",
    "city": "Lake Charles",
    "country": "United States",
    "IATA": "LCH",
    "ICAO": "KLCH",
    "lat": "30.126100540161133",
    "lon": "-93.22329711914062",
    "timezone": "-6"
  },
  {
    "name": "Ellison Onizuka Kona Intl At Keahole",
    "city": "Kona",
    "country": "United States",
    "IATA": "KOA",
    "ICAO": "PHKO",
    "lat": "19.738783",
    "lon": "-156.045603",
    "timezone": "-10"
  },
  {
    "name": "Myrtle Beach Intl",
    "city": "Myrtle Beach",
    "country": "United States",
    "IATA": "MYR",
    "ICAO": "KMYR",
    "lat": "33.6796989441",
    "lon": "-78.9282989502",
    "timezone": "-5"
  },
  {
    "name": "Lemoore Naval Air Station (Reeves Field)",
    "city": "Lemoore",
    "country": "United States",
    "IATA": "NLC",
    "ICAO": "KNLC",
    "lat": "36.33300018",
    "lon": "-119.9520035",
    "timezone": "-8"
  },
  {
    "name": "Nantucket Memorial",
    "city": "Nantucket",
    "country": "United States",
    "IATA": "ACK",
    "ICAO": "KACK",
    "lat": "41.25310135",
    "lon": "-70.06020355",
    "timezone": "-5"
  },
  {
    "name": "Felker Army Air Field",
    "city": "Fort Eustis",
    "country": "United States",
    "IATA": "FAF",
    "ICAO": "KFAF",
    "lat": "37.132499694799996",
    "lon": "-76.60880279540001",
    "timezone": "-5"
  },
  {
    "name": "Campbell AAF (Fort Campbell) Air Field",
    "city": "Hopkinsville",
    "country": "United States",
    "IATA": "HOP",
    "ICAO": "KHOP",
    "lat": "36.668598175",
    "lon": "-87.49620056150002",
    "timezone": "-6"
  },
  {
    "name": "Ronald Reagan Washington National",
    "city": "Washington",
    "country": "United States",
    "IATA": "DCA",
    "ICAO": "KDCA",
    "lat": "38.8521",
    "lon": "-77.037697",
    "timezone": "-5"
  },
  {
    "name": "Patuxent River Naval Air Station (Trapnell Field)",
    "city": "Patuxent River",
    "country": "United States",
    "IATA": "NHK",
    "ICAO": "KNHK",
    "lat": "38.285999",
    "lon": "-76.411797",
    "timezone": "-5"
  },
  {
    "name": "Palacios Municipal",
    "city": "Palacios",
    "country": "United States",
    "IATA": "PSX",
    "ICAO": "KPSX",
    "lat": "28.727500915527",
    "lon": "-96.250999450684",
    "timezone": "-6"
  },
  {
    "name": "Arkansas Intl",
    "city": "Blytheville",
    "country": "United States",
    "IATA": "BYH",
    "ICAO": "KBYH",
    "lat": "35.9642982483",
    "lon": "-89.94400024410001",
    "timezone": "-6"
  },
  {
    "name": "Atlantic City Intl",
    "city": "Atlantic City",
    "country": "United States",
    "IATA": "ACY",
    "ICAO": "KACY",
    "lat": "39.45759963989258",
    "lon": "-74.57720184326172",
    "timezone": "-5"
  },
  {
    "name": "Tinker Air Force Base",
    "city": "Oklahoma City",
    "country": "United States",
    "IATA": "TIK",
    "ICAO": "KTIK",
    "lat": "35.414699554443",
    "lon": "-97.386596679688",
    "timezone": "-6"
  },
  {
    "name": "Elizabeth City Regional & Coast Guard Air Station",
    "city": "Elizabeth City",
    "country": "United States",
    "IATA": "ECG",
    "ICAO": "KECG",
    "lat": "36.26060104",
    "lon": "-76.17459869",
    "timezone": "-5"
  },
  {
    "name": "Pueblo Memorial",
    "city": "Pueblo",
    "country": "United States",
    "IATA": "PUB",
    "ICAO": "KPUB",
    "lat": "38.289100646972656",
    "lon": "-104.49700164794922",
    "timezone": "-7"
  },
  {
    "name": "Northern Maine Regional at Presque Isle",
    "city": "Presque Isle",
    "country": "United States",
    "IATA": "PQI",
    "ICAO": "KPQI",
    "lat": "46.68899918",
    "lon": "-68.0447998",
    "timezone": "-5"
  },
  {
    "name": "Gray Army Air Field",
    "city": "Fort Lewis",
    "country": "United States",
    "IATA": "GRF",
    "ICAO": "KGRF",
    "lat": "47.07920074",
    "lon": "-122.5810013",
    "timezone": "-8"
  },
  {
    "name": "Kodiak",
    "city": "Kodiak",
    "country": "United States",
    "IATA": "ADQ",
    "ICAO": "PADQ",
    "lat": "57.75",
    "lon": "-152.4940033",
    "timezone": "-9"
  },
  {
    "name": "Upolu",
    "city": "Opolu",
    "country": "United States",
    "IATA": "UPP",
    "ICAO": "PHUP",
    "lat": "20.265300750732422",
    "lon": "-155.86000061035156",
    "timezone": "-10"
  },
  {
    "name": "Fort Lauderdale Hollywood Intl",
    "city": "Fort Lauderdale",
    "country": "United States",
    "IATA": "FLL",
    "ICAO": "KFLL",
    "lat": "26.072599",
    "lon": "-80.152702",
    "timezone": "-5"
  },
  {
    "name": "Muskogee-Davis Regional",
    "city": "Muskogee",
    "country": "United States",
    "IATA": "\\N",
    "ICAO": "KMKO",
    "lat": "35.656502",
    "lon": "-95.366699",
    "timezone": "-6"
  },
  {
    "name": "Falls Intl",
    "city": "International Falls",
    "country": "United States",
    "IATA": "INL",
    "ICAO": "KINL",
    "lat": "48.566200256347656",
    "lon": "-93.4030990600586",
    "timezone": "-6"
  },
  {
    "name": "Salt Lake City Intl",
    "city": "Salt Lake City",
    "country": "United States",
    "IATA": "SLC",
    "ICAO": "KSLC",
    "lat": "40.78839874267578",
    "lon": "-111.97799682617188",
    "timezone": "-7"
  },
  {
    "name": "Childress Municipal",
    "city": "Childress",
    "country": "United States",
    "IATA": "CDS",
    "ICAO": "KCDS",
    "lat": "34.4337997437",
    "lon": "-100.288002014",
    "timezone": "-6"
  },
  {
    "name": "Keesler Air Force Base",
    "city": "Biloxi",
    "country": "United States",
    "IATA": "BIX",
    "ICAO": "KBIX",
    "lat": "30.4104003906",
    "lon": "-88.92440032959999",
    "timezone": "-6"
  },
  {
    "name": "Lawson Army Air Field (Fort Benning)",
    "city": "Fort Benning",
    "country": "United States",
    "IATA": "LSF",
    "ICAO": "KLSF",
    "lat": "32.337299346900004",
    "lon": "-84.9913024902",
    "timezone": "-5"
  },
  {
    "name": "Kingsville Naval Air Station",
    "city": "Kingsville",
    "country": "United States",
    "IATA": "NQI",
    "ICAO": "KNQI",
    "lat": "27.5072002411",
    "lon": "-97.8097000122",
    "timezone": "-6"
  },
  {
    "name": "Marshall Army Air Field",
    "city": "Fort Riley",
    "country": "United States",
    "IATA": "FRI",
    "ICAO": "KFRI",
    "lat": "39.05530167",
    "lon": "-96.76450348",
    "timezone": "-6"
  },
  {
    "name": "Harrisburg Intl",
    "city": "Harrisburg",
    "country": "United States",
    "IATA": "MDT",
    "ICAO": "KMDT",
    "lat": "40.1935005188",
    "lon": "-76.7633972168",
    "timezone": "-5"
  },
  {
    "name": "Lincoln",
    "city": "Lincoln",
    "country": "United States",
    "IATA": "LNK",
    "ICAO": "KLNK",
    "lat": "40.85100173950195",
    "lon": "-96.75920104980469",
    "timezone": "-6"
  },
  {
    "name": "Capital City",
    "city": "Lansing",
    "country": "United States",
    "IATA": "LAN",
    "ICAO": "KLAN",
    "lat": "42.77870178222656",
    "lon": "-84.58740234375",
    "timezone": "-5"
  },
  {
    "name": "Waimea Kohala",
    "city": "Kamuela",
    "country": "United States",
    "IATA": "MUE",
    "ICAO": "PHMU",
    "lat": "20.001300811767578",
    "lon": "-155.66799926757812",
    "timezone": "-10"
  },
  {
    "name": "Massena Intl Richards Field",
    "city": "Massena",
    "country": "United States",
    "IATA": "MSS",
    "ICAO": "KMSS",
    "lat": "44.93579864501953",
    "lon": "-74.84559631347656",
    "timezone": "-5"
  },
  {
    "name": "Hickory Regional",
    "city": "Hickory",
    "country": "United States",
    "IATA": "HKY",
    "ICAO": "KHKY",
    "lat": "35.74110031",
    "lon": "-81.38950348",
    "timezone": "-5"
  },
  {
    "name": "Albert Whitted",
    "city": "St. Petersburg",
    "country": "United States",
    "IATA": "SPG",
    "ICAO": "KSPG",
    "lat": "27.7651",
    "lon": "-82.626999",
    "timezone": "-5"
  },
  {
    "name": "Page Field",
    "city": "Fort Myers",
    "country": "United States",
    "IATA": "FMY",
    "ICAO": "KFMY",
    "lat": "26.58659935",
    "lon": "-81.86329650879999",
    "timezone": "-5"
  },
  {
    "name": "George Bush Intercontinental Houston",
    "city": "Houston",
    "country": "United States",
    "IATA": "IAH",
    "ICAO": "KIAH",
    "lat": "29.984399795532227",
    "lon": "-95.34140014648438",
    "timezone": "-6"
  },
  {
    "name": "Millinocket Municipal",
    "city": "Millinocket",
    "country": "United States",
    "IATA": "\\N",
    "ICAO": "KMLT",
    "lat": "45.64780044555664",
    "lon": "-68.68560028076172",
    "timezone": "-5"
  },
  {
    "name": "Joint Base Andrews",
    "city": "Camp Springs",
    "country": "United States",
    "IATA": "ADW",
    "ICAO": "KADW",
    "lat": "38.810799",
    "lon": "-76.866997",
    "timezone": "-5"
  },
  {
    "name": "Smith Reynolds",
    "city": "Winston-salem",
    "country": "United States",
    "IATA": "INT",
    "ICAO": "KINT",
    "lat": "36.13370132446289",
    "lon": "-80.22200012207031",
    "timezone": "-5"
  },
  {
    "name": "Southern California Logistics",
    "city": "Victorville",
    "country": "United States",
    "IATA": "VCV",
    "ICAO": "KVCV",
    "lat": "34.597499847399995",
    "lon": "-117.383003235",
    "timezone": "-8"
  },
  {
    "name": "Bob Sikes",
    "city": "Crestview",
    "country": "United States",
    "IATA": "CEW",
    "ICAO": "KCEW",
    "lat": "30.778799057",
    "lon": "-86.522102356",
    "timezone": "-6"
  },
  {
    "name": "Wheeler Sack Army Air Field",
    "city": "Fort Drum",
    "country": "United States",
    "IATA": "\\N",
    "ICAO": "KGTB",
    "lat": "44.05559921",
    "lon": "-75.71949768",
    "timezone": "-5"
  },
  {
    "name": "St Clair County Intl",
    "city": "Port Huron",
    "country": "United States",
    "IATA": "PHN",
    "ICAO": "KPHN",
    "lat": "42.9109993",
    "lon": "-82.52890015",
    "timezone": "-5"
  },
  {
    "name": "Meadows Field",
    "city": "Bakersfield",
    "country": "United States",
    "IATA": "BFL",
    "ICAO": "KBFL",
    "lat": "35.43360138",
    "lon": "-119.0569992",
    "timezone": "-8"
  },
  {
    "name": "El Paso Intl",
    "city": "El Paso",
    "country": "United States",
    "IATA": "ELP",
    "ICAO": "KELP",
    "lat": "31.80719948",
    "lon": "-106.3779984",
    "timezone": "-7"
  },
  {
    "name": "Valley Intl",
    "city": "Harlingen",
    "country": "United States",
    "IATA": "HRL",
    "ICAO": "KHRL",
    "lat": "26.228500366210938",
    "lon": "-97.65440368652344",
    "timezone": "-6"
  },
  {
    "name": "Columbia Metropolitan",
    "city": "Columbia",
    "country": "United States",
    "IATA": "CAE",
    "ICAO": "KCAE",
    "lat": "33.93880081176758",
    "lon": "-81.11949920654297",
    "timezone": "-5"
  },
  {
    "name": "Davis Monthan Air Force Base",
    "city": "Tucson",
    "country": "United States",
    "IATA": "DMA",
    "ICAO": "KDMA",
    "lat": "32.1665000916",
    "lon": "-110.883003235",
    "timezone": "-7"
  },
  {
    "name": "Pensacola Naval Air Station/Forrest Sherman Field",
    "city": "Pensacola",
    "country": "United States",
    "IATA": "NPA",
    "ICAO": "KNPA",
    "lat": "30.35269928",
    "lon": "-87.31860352",
    "timezone": "-6"
  },
  {
    "name": "Pensacola Regional",
    "city": "Pensacola",
    "country": "United States",
    "IATA": "PNS",
    "ICAO": "KPNS",
    "lat": "30.473400115967",
    "lon": "-87.186599731445",
    "timezone": "-6"
  },
  {
    "name": "Grand Forks Air Force Base",
    "city": "Red River",
    "country": "United States",
    "IATA": "RDR",
    "ICAO": "KRDR",
    "lat": "47.961101532",
    "lon": "-97.4011993408",
    "timezone": "-6"
  },
  {
    "name": "William P Hobby",
    "city": "Houston",
    "country": "United States",
    "IATA": "HOU",
    "ICAO": "KHOU",
    "lat": "29.64539909",
    "lon": "-95.27890015",
    "timezone": "-6"
  },
  {
    "name": "Buckley Air Force Base",
    "city": "Buckley",
    "country": "United States",
    "IATA": "BFK",
    "ICAO": "KBKF",
    "lat": "39.701698303200004",
    "lon": "-104.751998901",
    "timezone": "-7"
  },
  {
    "name": "Northway",
    "city": "Northway",
    "country": "United States",
    "IATA": "ORT",
    "ICAO": "PAOR",
    "lat": "62.9612999",
    "lon": "-141.9290009",
    "timezone": "-9"
  },
  {
    "name": "Warren Bud Woods Palmer Municipal",
    "city": "Palmer",
    "country": "United States",
    "IATA": "PAQ",
    "ICAO": "PAAQ",
    "lat": "61.594898",
    "lon": "-149.08901",
    "timezone": "-9"
  },
  {
    "name": "Pittsburgh Intl",
    "city": "Pittsburgh",
    "country": "United States",
    "IATA": "PIT",
    "ICAO": "KPIT",
    "lat": "40.49150085",
    "lon": "-80.23290253",
    "timezone": "-5"
  },
  {
    "name": "Wiley Post Will Rogers Memorial",
    "city": "Barrow",
    "country": "United States",
    "IATA": "BRW",
    "ICAO": "PABR",
    "lat": "71.285402",
    "lon": "-156.766008",
    "timezone": "-9"
  },
  {
    "name": "Ellington",
    "city": "Houston",
    "country": "United States",
    "IATA": "EFD",
    "ICAO": "KEFD",
    "lat": "29.607299804700002",
    "lon": "-95.1587982178",
    "timezone": "-6"
  },
  {
    "name": "Whidbey Island Naval Air Station (Ault Field)",
    "city": "Whidbey Island",
    "country": "United States",
    "IATA": "NUW",
    "ICAO": "KNUW",
    "lat": "48.351799",
    "lon": "-122.655998",
    "timezone": "-8"
  },
  {
    "name": "Alice Intl",
    "city": "Alice",
    "country": "United States",
    "IATA": "ALI",
    "ICAO": "KALI",
    "lat": "27.740900039699998",
    "lon": "-98.02690124510002",
    "timezone": "-6"
  },
  {
    "name": "Moody Air Force Base",
    "city": "Valdosta",
    "country": "United States",
    "IATA": "VAD",
    "ICAO": "KVAD",
    "lat": "30.9678001404",
    "lon": "-83.1930007935",
    "timezone": "-5"
  },
  {
    "name": "Miami Intl",
    "city": "Miami",
    "country": "United States",
    "IATA": "MIA",
    "ICAO": "KMIA",
    "lat": "25.79319953918457",
    "lon": "-80.29060363769531",
    "timezone": "-5"
  },
  {
    "name": "Seattle Tacoma Intl",
    "city": "Seattle",
    "country": "United States",
    "IATA": "SEA",
    "ICAO": "KSEA",
    "lat": "47.449001",
    "lon": "-122.308998",
    "timezone": "-8"
  },
  {
    "name": "Lovell Field",
    "city": "Chattanooga",
    "country": "United States",
    "IATA": "CHA",
    "ICAO": "KCHA",
    "lat": "35.035301208496094",
    "lon": "-85.20379638671875",
    "timezone": "-5"
  },
  {
    "name": "Igor I Sikorsky Memorial",
    "city": "Stratford",
    "country": "United States",
    "IATA": "BDR",
    "ICAO": "KBDR",
    "lat": "41.16350173950195",
    "lon": "-73.1261978149414",
    "timezone": "-5"
  },
  {
    "name": "Jackson-Medgar Wiley Evers Intl",
    "city": "Jackson",
    "country": "United States",
    "IATA": "JAN",
    "ICAO": "KJAN",
    "lat": "32.3111991882",
    "lon": "-90.0758972168",
    "timezone": "-6"
  },
  {
    "name": "Scholes Intl At Galveston",
    "city": "Galveston",
    "country": "United States",
    "IATA": "GLS",
    "ICAO": "KGLS",
    "lat": "29.265300750732422",
    "lon": "-94.86039733886719",
    "timezone": "-6"
  },
  {
    "name": "Long Beach /Daugherty Field/",
    "city": "Long Beach",
    "country": "United States",
    "IATA": "LGB",
    "ICAO": "KLGB",
    "lat": "33.81769943",
    "lon": "-118.1520004",
    "timezone": "-8"
  },
  {
    "name": "Dillingham Airfield",
    "city": "Dillingham",
    "country": "United States",
    "IATA": "HDH",
    "ICAO": "PHDH",
    "lat": "21.5795001984",
    "lon": "-158.197006226",
    "timezone": "-10"
  },
  {
    "name": "Williamsport Regional",
    "city": "Williamsport",
    "country": "United States",
    "IATA": "IPT",
    "ICAO": "KIPT",
    "lat": "41.241798400878906",
    "lon": "-76.92109680175781",
    "timezone": "-5"
  },
  {
    "name": "Indianapolis Intl",
    "city": "Indianapolis",
    "country": "United States",
    "IATA": "IND",
    "ICAO": "KIND",
    "lat": "39.7173",
    "lon": "-86.294403",
    "timezone": "-5"
  },
  {
    "name": "Whiteman Air Force Base",
    "city": "Knobnoster",
    "country": "United States",
    "IATA": "SZL",
    "ICAO": "KSZL",
    "lat": "38.73030090332",
    "lon": "-93.547897338867",
    "timezone": "-6"
  },
  {
    "name": "Akron Fulton Intl",
    "city": "Akron",
    "country": "United States",
    "IATA": "AKC",
    "ICAO": "KAKR",
    "lat": "41.0374984741",
    "lon": "-81.4669036865",
    "timezone": "-5"
  },
  {
    "name": "Greenwood–Leflore",
    "city": "Greenwood",
    "country": "United States",
    "IATA": "GWO",
    "ICAO": "KGWO",
    "lat": "33.4943008423",
    "lon": "-90.0847015381",
    "timezone": "-6"
  },
  {
    "name": "Westchester County",
    "city": "White Plains",
    "country": "United States",
    "IATA": "HPN",
    "ICAO": "KHPN",
    "lat": "41.06700134277344",
    "lon": "-73.70760345458984",
    "timezone": "-5"
  },
  {
    "name": "Francis S Gabreski",
    "city": "West Hampton Beach",
    "country": "United States",
    "IATA": "FOK",
    "ICAO": "KFOK",
    "lat": "40.8437004089",
    "lon": "-72.6317977905",
    "timezone": "-5"
  },
  {
    "name": "Jonesboro Municipal",
    "city": "Jonesboro",
    "country": "United States",
    "IATA": "JBR",
    "ICAO": "KJBR",
    "lat": "35.83169937133789",
    "lon": "-90.64640045166016",
    "timezone": "-6"
  },
  {
    "name": "Tonopah Test Range",
    "city": "Tonopah",
    "country": "United States",
    "IATA": "XSD",
    "ICAO": "KTNX",
    "lat": "37.7988014221",
    "lon": "-116.78099823",
    "timezone": "-8"
  },
  {
    "name": "Palm Beach County Park",
    "city": "West Palm Beach",
    "country": "United States",
    "IATA": "LNA",
    "ICAO": "KLNA",
    "lat": "26.59300041",
    "lon": "-80.08509827",
    "timezone": "-5"
  },
  {
    "name": "North Island Naval Air Station-Halsey Field",
    "city": "San Diego",
    "country": "United States",
    "IATA": "NZY",
    "ICAO": "KNZY",
    "lat": "32.69919968",
    "lon": "-117.2149963",
    "timezone": "-8"
  },
  {
    "name": "Biggs Army Air Field (Fort Bliss)",
    "city": "El Paso",
    "country": "United States",
    "IATA": "BIF",
    "ICAO": "KBIF",
    "lat": "31.84950066",
    "lon": "-106.3799973",
    "timezone": "-7"
  },
  {
    "name": "Yuma MCAS/Yuma Intl",
    "city": "Yuma",
    "country": "United States",
    "IATA": "YUM",
    "ICAO": "KNYL",
    "lat": "32.65660095",
    "lon": "-114.6060028",
    "timezone": "-7"
  },
  {
    "name": "Cavern City Air Terminal",
    "city": "Carlsbad",
    "country": "United States",
    "IATA": "CNM",
    "ICAO": "KCNM",
    "lat": "32.337501525878906",
    "lon": "-104.26300048828125",
    "timezone": "-7"
  },
  {
    "name": "Duluth Intl",
    "city": "Duluth",
    "country": "United States",
    "IATA": "DLH",
    "ICAO": "KDLH",
    "lat": "46.8420982361",
    "lon": "-92.19360351559999",
    "timezone": "-6"
  },
  {
    "name": "Bethel",
    "city": "Bethel",
    "country": "United States",
    "IATA": "BET",
    "ICAO": "PABE",
    "lat": "60.77980042",
    "lon": "-161.8379974",
    "timezone": "-9"
  },
  {
    "name": "Bowman Field",
    "city": "Louisville",
    "country": "United States",
    "IATA": "LOU",
    "ICAO": "KLOU",
    "lat": "38.2280006409",
    "lon": "-85.6636962891",
    "timezone": "-5"
  },
  {
    "name": "Sierra Vista Municipal Libby Army Air Field",
    "city": "Fort Huachuca",
    "country": "United States",
    "IATA": "FHU",
    "ICAO": "KFHU",
    "lat": "31.588499069213867",
    "lon": "-110.34400177001953",
    "timezone": "-7"
  },
  {
    "name": "Lihue",
    "city": "Lihue",
    "country": "United States",
    "IATA": "LIH",
    "ICAO": "PHLI",
    "lat": "21.97599983215332",
    "lon": "-159.33900451660156",
    "timezone": "-10"
  },
  {
    "name": "Havre City County",
    "city": "Havre",
    "country": "United States",
    "IATA": "HVR",
    "ICAO": "KHVR",
    "lat": "48.54299927",
    "lon": "-109.762001",
    "timezone": "-7"
  },
  {
    "name": "Grant County Intl",
    "city": "Grant County Airport",
    "country": "United States",
    "IATA": "MWH",
    "ICAO": "KMWH",
    "lat": "47.20769882",
    "lon": "-119.3199997",
    "timezone": "-8"
  },
  {
    "name": "Edward F Knapp State",
    "city": "Montpelier",
    "country": "United States",
    "IATA": "MPV",
    "ICAO": "KMPV",
    "lat": "44.20349884",
    "lon": "-72.56230164",
    "timezone": "-5"
  },
  {
    "name": "San Nicolas Island Nolf",
    "city": "San Nicolas Island",
    "country": "United States",
    "IATA": "\\N",
    "ICAO": "KNSI",
    "lat": "33.23979949951172",
    "lon": "-119.45800018310547",
    "timezone": "-8"
  },
  {
    "name": "Richmond Intl",
    "city": "Richmond",
    "country": "United States",
    "IATA": "RIC",
    "ICAO": "KRIC",
    "lat": "37.50519943237305",
    "lon": "-77.3197021484375",
    "timezone": "-5"
  },
  {
    "name": "Shreveport Regional",
    "city": "Shreveport",
    "country": "United States",
    "IATA": "SHV",
    "ICAO": "KSHV",
    "lat": "32.446602",
    "lon": "-93.8256",
    "timezone": "-6"
  },
  {
    "name": "Merle K (Mudhole) Smith",
    "city": "Cordova",
    "country": "United States",
    "IATA": "CDV",
    "ICAO": "PACV",
    "lat": "60.4917984",
    "lon": "-145.4779968",
    "timezone": "-9"
  },
  {
    "name": "Norfolk Intl",
    "city": "Norfolk",
    "country": "United States",
    "IATA": "ORF",
    "ICAO": "KORF",
    "lat": "36.89459991455078",
    "lon": "-76.20120239257812",
    "timezone": "-5"
  },
  {
    "name": "Southeast Texas Regional",
    "city": "Beaumont",
    "country": "United States",
    "IATA": "BPT",
    "ICAO": "KBPT",
    "lat": "29.9507999420166",
    "lon": "-94.02069854736328",
    "timezone": "-6"
  },
  {
    "name": "Savannah Hilton Head Intl",
    "city": "Savannah",
    "country": "United States",
    "IATA": "SAV",
    "ICAO": "KSAV",
    "lat": "32.12760162",
    "lon": "-81.20210266",
    "timezone": "-5"
  },
  {
    "name": "Hill Air Force Base",
    "city": "Ogden",
    "country": "United States",
    "IATA": "HIF",
    "ICAO": "KHIF",
    "lat": "41.12403",
    "lon": "-111.973086",
    "timezone": "-7"
  },
  {
    "name": "Nome",
    "city": "Nome",
    "country": "United States",
    "IATA": "OME",
    "ICAO": "PAOM",
    "lat": "64.51219940185547",
    "lon": "-165.44500732421875",
    "timezone": "-9"
  },
  {
    "name": "Scappoose Industrial Airpark",
    "city": "San Luis",
    "country": "United States",
    "IATA": "\\N",
    "ICAO": "KSPB",
    "lat": "45.770999908447266",
    "lon": "-122.86199951171875",
    "timezone": "-8"
  },
  {
    "name": "St Petersburg Clearwater Intl",
    "city": "St. Petersburg",
    "country": "United States",
    "IATA": "PIE",
    "ICAO": "KPIE",
    "lat": "27.91020012",
    "lon": "-82.68740082",
    "timezone": "-5"
  },
  {
    "name": "Menominee Regional",
    "city": "Macon",
    "country": "United States",
    "IATA": "MNM",
    "ICAO": "KMNM",
    "lat": "45.126701",
    "lon": "-87.638397",
    "timezone": "-6"
  },
  {
    "name": "Conroe-North Houston Regional",
    "city": "Conroe",
    "country": "United States",
    "IATA": "CXO",
    "ICAO": "KCXO",
    "lat": "30.351801",
    "lon": "-95.414497",
    "timezone": "-6"
  },
  {
    "name": "Deadhorse",
    "city": "Deadhorse",
    "country": "United States",
    "IATA": "SCC",
    "ICAO": "PASC",
    "lat": "70.19470215",
    "lon": "-148.4649963",
    "timezone": "-9"
  },
  {
    "name": "San Antonio Intl",
    "city": "San Antonio",
    "country": "United States",
    "IATA": "SAT",
    "ICAO": "KSAT",
    "lat": "29.533700942993164",
    "lon": "-98.46980285644531",
    "timezone": "-6"
  },
  {
    "name": "Greater Rochester Intl",
    "city": "Rochester",
    "country": "United States",
    "IATA": "ROC",
    "ICAO": "KROC",
    "lat": "43.118900299072266",
    "lon": "-77.67240142822266",
    "timezone": "-5"
  },
  {
    "name": "Patrick Air Force Base",
    "city": "Coco Beach",
    "country": "United States",
    "IATA": "COF",
    "ICAO": "KCOF",
    "lat": "28.2348995209",
    "lon": "-80.6100997925",
    "timezone": "-5"
  },
  {
    "name": "Teterboro",
    "city": "Teterboro",
    "country": "United States",
    "IATA": "TEB",
    "ICAO": "KTEB",
    "lat": "40.85010147089999",
    "lon": "-74.060798645",
    "timezone": "-5"
  },
  {
    "name": "Ellsworth Air Force Base",
    "city": "Rapid City",
    "country": "United States",
    "IATA": "RCA",
    "ICAO": "KRCA",
    "lat": "44.14500046",
    "lon": "-103.1039963",
    "timezone": "-7"
  },
  {
    "name": "Raleigh Durham Intl",
    "city": "Raleigh-durham",
    "country": "United States",
    "IATA": "RDU",
    "ICAO": "KRDU",
    "lat": "35.877601623535156",
    "lon": "-78.7874984741211",
    "timezone": "-5"
  },
  {
    "name": "James M Cox Dayton Intl",
    "city": "Dayton",
    "country": "United States",
    "IATA": "DAY",
    "ICAO": "KDAY",
    "lat": "39.902400970458984",
    "lon": "-84.21939849853516",
    "timezone": "-5"
  },
  {
    "name": "Kenai Municipal",
    "city": "Kenai",
    "country": "United States",
    "IATA": "ENA",
    "ICAO": "PAEN",
    "lat": "60.57310104370117",
    "lon": "-151.2449951171875",
    "timezone": "-9"
  },
  {
    "name": "Mc Alester Regional",
    "city": "Mcalester",
    "country": "United States",
    "IATA": "MLC",
    "ICAO": "KMLC",
    "lat": "34.882401",
    "lon": "-95.783501",
    "timezone": "-6"
  },
  {
    "name": "Niagara Falls Intl",
    "city": "Niagara Falls",
    "country": "United States",
    "IATA": "IAG",
    "ICAO": "KIAG",
    "lat": "43.1072998046875",
    "lon": "-78.94619750976562",
    "timezone": "-5"
  },
  {
    "name": "Coulter Field",
    "city": "Bryan",
    "country": "United States",
    "IATA": "CFD",
    "ICAO": "KCFD",
    "lat": "30.715700149499998",
    "lon": "-96.3313980103",
    "timezone": "-6"
  },
  {
    "name": "Wright AAF (Fort Stewart)/Midcoast Regional",
    "city": "Wright",
    "country": "United States",
    "IATA": "LIY",
    "ICAO": "KLHW",
    "lat": "31.889099",
    "lon": "-81.562303",
    "timezone": "-5"
  },
  {
    "name": "Newport News Williamsburg Intl",
    "city": "Newport News",
    "country": "United States",
    "IATA": "PHF",
    "ICAO": "KPHF",
    "lat": "37.13190079",
    "lon": "-76.49299622",
    "timezone": "-5"
  },
  {
    "name": "Esler Regional",
    "city": "Alexandria",
    "country": "United States",
    "IATA": "ESF",
    "ICAO": "KESF",
    "lat": "31.3948993683",
    "lon": "-92.2957992554",
    "timezone": "-6"
  },
  {
    "name": "Altus Air Force Base",
    "city": "Altus",
    "country": "United States",
    "IATA": "LTS",
    "ICAO": "KLTS",
    "lat": "34.667098999",
    "lon": "-99.2667007446",
    "timezone": "-6"
  },
  {
    "name": "Tucson Intl",
    "city": "Tucson",
    "country": "United States",
    "IATA": "TUS",
    "ICAO": "KTUS",
    "lat": "32.1161003112793",
    "lon": "-110.94100189208984",
    "timezone": "-7"
  },
  {
    "name": "Minot Air Force Base",
    "city": "Minot",
    "country": "United States",
    "IATA": "MIB",
    "ICAO": "KMIB",
    "lat": "48.4156",
    "lon": "-101.358002",
    "timezone": "-6"
  },
  {
    "name": "Beale Air Force Base",
    "city": "Marysville",
    "country": "United States",
    "IATA": "BAB",
    "ICAO": "KBAB",
    "lat": "39.136100769",
    "lon": "-121.43699646",
    "timezone": "-8"
  },
  {
    "name": "Greater Kankakee",
    "city": "Kankakee",
    "country": "United States",
    "IATA": "IKK",
    "ICAO": "KIKK",
    "lat": "41.07139968869999",
    "lon": "-87.8462982178",
    "timezone": "-6"
  },
  {
    "name": "Seymour Johnson Air Force Base",
    "city": "Goldsboro",
    "country": "United States",
    "IATA": "GSB",
    "ICAO": "KGSB",
    "lat": "35.33940125",
    "lon": "-77.96060181",
    "timezone": "-5"
  },
  {
    "name": "Theodore Francis Green State",
    "city": "Providence",
    "country": "United States",
    "IATA": "PVD",
    "ICAO": "KPVD",
    "lat": "41.732601",
    "lon": "-71.420403",
    "timezone": "-5"
  },
  {
    "name": "Salisbury Ocean City Wicomico Regional",
    "city": "Salisbury",
    "country": "United States",
    "IATA": "SBY",
    "ICAO": "KSBY",
    "lat": "38.34049987792969",
    "lon": "-75.51029968261719",
    "timezone": "-5"
  },
  {
    "name": "Rancho Murieta",
    "city": "Rancho Murieta",
    "country": "United States",
    "IATA": "\\N",
    "ICAO": "KRIU",
    "lat": "38.48680114746094",
    "lon": "-121.10299682617188",
    "timezone": "-8"
  },
  {
    "name": "Bob Hope",
    "city": "Burbank",
    "country": "United States",
    "IATA": "BUR",
    "ICAO": "KBUR",
    "lat": "34.20069885253906",
    "lon": "-118.35900115966797",
    "timezone": "-8"
  },
  {
    "name": "Detroit Metropolitan Wayne County",
    "city": "Detroit",
    "country": "United States",
    "IATA": "DTW",
    "ICAO": "KDTW",
    "lat": "42.212398529052734",
    "lon": "-83.35340118408203",
    "timezone": "-5"
  },
  {
    "name": "Tampa Intl",
    "city": "Tampa",
    "country": "United States",
    "IATA": "TPA",
    "ICAO": "KTPA",
    "lat": "27.975500106811523",
    "lon": "-82.533203125",
    "timezone": "-5"
  },
  {
    "name": "Pembina Municipal",
    "city": "Pembina",
    "country": "United States",
    "IATA": "PMB",
    "ICAO": "KPMB",
    "lat": "48.9425010681",
    "lon": "-97.2407989502",
    "timezone": "-6"
  },
  {
    "name": "Polk Army Air Field",
    "city": "Fort Polk",
    "country": "United States",
    "IATA": "POE",
    "ICAO": "KPOE",
    "lat": "31.0447998",
    "lon": "-93.1917038",
    "timezone": "-6"
  },
  {
    "name": "Eielson Air Force Base",
    "city": "Fairbanks",
    "country": "United States",
    "IATA": "EIL",
    "ICAO": "PAEI",
    "lat": "64.66570282",
    "lon": "-147.102005",
    "timezone": "-9"
  },
  {
    "name": "Range Regional",
    "city": "Hibbing",
    "country": "United States",
    "IATA": "HIB",
    "ICAO": "KHIB",
    "lat": "47.38660049",
    "lon": "-92.83899689",
    "timezone": "-6"
  },
  {
    "name": "Angelina County",
    "city": "Lufkin",
    "country": "United States",
    "IATA": "LFK",
    "ICAO": "KLFK",
    "lat": "31.2339992523",
    "lon": "-94.75",
    "timezone": "-6"
  },
  {
    "name": "Midland Intl",
    "city": "Midland",
    "country": "United States",
    "IATA": "MAF",
    "ICAO": "KMAF",
    "lat": "31.9424991607666",
    "lon": "-102.2020034790039",
    "timezone": "-6"
  },
  {
    "name": "Austin Straubel Intl",
    "city": "Green Bay",
    "country": "United States",
    "IATA": "GRB",
    "ICAO": "KGRB",
    "lat": "44.48509979248047",
    "lon": "-88.12960052490234",
    "timezone": "-6"
  },
  {
    "name": "Ardmore Municipal",
    "city": "Ardmore",
    "country": "United States",
    "IATA": "ADM",
    "ICAO": "KADM",
    "lat": "34.30301",
    "lon": "-97.0196342",
    "timezone": "-6"
  },
  {
    "name": "Mc Guire Air Force Base",
    "city": "Wrightstown",
    "country": "United States",
    "IATA": "WRI",
    "ICAO": "KWRI",
    "lat": "40.0155983",
    "lon": "-74.59169769",
    "timezone": "-5"
  },
  {
    "name": "Cherry Point MCAS /Cunningham Field/",
    "city": "Cherry Point",
    "country": "United States",
    "IATA": "\\N",
    "ICAO": "KNKT",
    "lat": "34.90090179",
    "lon": "-76.88069916",
    "timezone": "-5"
  },
  {
    "name": "Emanuel County",
    "city": "Santa Barbara",
    "country": "United States",
    "IATA": "\\N",
    "ICAO": "KSBO",
    "lat": "32.609100341796875",
    "lon": "-82.36990356445312",
    "timezone": "-5"
  },
  {
    "name": "Augusta Regional At Bush Field",
    "city": "Bush Field",
    "country": "United States",
    "IATA": "AGS",
    "ICAO": "KAGS",
    "lat": "33.36989974975586",
    "lon": "-81.9645004272461",
    "timezone": "-5"
  },
  {
    "name": "Sloulin Field Intl",
    "city": "Williston",
    "country": "United States",
    "IATA": "ISN",
    "ICAO": "KISN",
    "lat": "48.177898407",
    "lon": "-103.641998291",
    "timezone": "-6"
  },
  {
    "name": "Bill & Hillary Clinton National /Adams Field",
    "city": "Little Rock",
    "country": "United States",
    "IATA": "LIT",
    "ICAO": "KLIT",
    "lat": "34.729400634799994",
    "lon": "-92.2242965698",
    "timezone": "-6"
  },
  {
    "name": "Stewart Intl",
    "city": "Newburgh",
    "country": "United States",
    "IATA": "SWF",
    "ICAO": "KSWF",
    "lat": "41.50410079956055",
    "lon": "-74.10479736328125",
    "timezone": "-5"
  },
  {
    "name": "Baudette Intl",
    "city": "Baudette",
    "country": "United States",
    "IATA": "BDE",
    "ICAO": "KBDE",
    "lat": "48.7284011841",
    "lon": "-94.612197876",
    "timezone": "-6"
  },
  {
    "name": "Sacramento Executive",
    "city": "Sacramento",
    "country": "United States",
    "IATA": "SAC",
    "ICAO": "KSAC",
    "lat": "38.5125007629",
    "lon": "-121.492996216",
    "timezone": "-8"
  },
  {
    "name": "Homer",
    "city": "Homer",
    "country": "United States",
    "IATA": "HOM",
    "ICAO": "PAHO",
    "lat": "59.645599365234375",
    "lon": "-151.4770050048828",
    "timezone": "-9"
  },
  {
    "name": "Waynesville-St. Robert Regional Forney field",
    "city": "Fort Leonardwood",
    "country": "United States",
    "IATA": "TBN",
    "ICAO": "KTBN",
    "lat": "37.74160004",
    "lon": "-92.14070129",
    "timezone": "-6"
  },
  {
    "name": "Dobbins Air Reserve Base",
    "city": "Marietta",
    "country": "United States",
    "IATA": "MGE",
    "ICAO": "KMGE",
    "lat": "33.91540146",
    "lon": "-84.51629639",
    "timezone": "-5"
  },
  {
    "name": "Fairchild Air Force Base",
    "city": "Spokane",
    "country": "United States",
    "IATA": "SKA",
    "ICAO": "KSKA",
    "lat": "47.6151008606",
    "lon": "-117.65599823",
    "timezone": "-8"
  },
  {
    "name": "Roscommon County – Blodgett Memorial",
    "city": "Houghton Lake",
    "country": "United States",
    "IATA": "HTL",
    "ICAO": "KHTL",
    "lat": "44.359798",
    "lon": "-84.671095",
    "timezone": "-5"
  },
  {
    "name": "Tyndall Air Force Base",
    "city": "Panama City",
    "country": "United States",
    "IATA": "PAM",
    "ICAO": "KPAM",
    "lat": "30.0695991516",
    "lon": "-85.57540130619999",
    "timezone": "-6"
  },
  {
    "name": "Dallas Fort Worth Intl",
    "city": "Dallas-Fort Worth",
    "country": "United States",
    "IATA": "DFW",
    "ICAO": "KDFW",
    "lat": "32.896801",
    "lon": "-97.038002",
    "timezone": "-6"
  },
  {
    "name": "Melbourne Intl",
    "city": "Melbourne",
    "country": "United States",
    "IATA": "MLB",
    "ICAO": "KMLB",
    "lat": "28.102800369262695",
    "lon": "-80.64530181884766",
    "timezone": "-5"
  },
  {
    "name": "McChord Air Force Base",
    "city": "Tacoma",
    "country": "United States",
    "IATA": "TCM",
    "ICAO": "KTCM",
    "lat": "47.1376991272",
    "lon": "-122.475997925",
    "timezone": "-8"
  },
  {
    "name": "Austin Bergstrom Intl",
    "city": "Austin",
    "country": "United States",
    "IATA": "AUS",
    "ICAO": "KAUS",
    "lat": "30.194499969482422",
    "lon": "-97.6698989868164",
    "timezone": "-6"
  },
  {
    "name": "Rickenbacker Intl",
    "city": "Columbus",
    "country": "United States",
    "IATA": "LCK",
    "ICAO": "KLCK",
    "lat": "39.813801",
    "lon": "-82.927803",
    "timezone": "-5"
  },
  {
    "name": "Sawyer Intl",
    "city": "Gwinn",
    "country": "United States",
    "IATA": "MQT",
    "ICAO": "KSAW",
    "lat": "46.353599548300004",
    "lon": "-87.395401001",
    "timezone": "-5"
  },
  {
    "name": "McGhee Tyson",
    "city": "Knoxville",
    "country": "United States",
    "IATA": "TYS",
    "ICAO": "KTYS",
    "lat": "35.81100082",
    "lon": "-83.9940033",
    "timezone": "-5"
  },
  {
    "name": "Hood Army Air Field",
    "city": "Fort Hood",
    "country": "United States",
    "IATA": "HLR",
    "ICAO": "KHLR",
    "lat": "31.138700485199998",
    "lon": "-97.71450042720001",
    "timezone": "-6"
  },
  {
    "name": "St Louis Lambert Intl",
    "city": "St. Louis",
    "country": "United States",
    "IATA": "STL",
    "ICAO": "KSTL",
    "lat": "38.748697",
    "lon": "-90.370003",
    "timezone": "-6"
  },
  {
    "name": "Millville Municipal",
    "city": "Millville",
    "country": "United States",
    "IATA": "MIV",
    "ICAO": "KMIV",
    "lat": "39.367802",
    "lon": "-75.072197",
    "timezone": "-5"
  },
  {
    "name": "Sheppard Air Force Base-Wichita Falls Municipal",
    "city": "Wichita Falls",
    "country": "United States",
    "IATA": "SPS",
    "ICAO": "KSPS",
    "lat": "33.9888",
    "lon": "-98.491898",
    "timezone": "-6"
  },
  {
    "name": "Cincinnati Municipal Lunken Field",
    "city": "Cincinnati",
    "country": "United States",
    "IATA": "LUK",
    "ICAO": "KLUK",
    "lat": "39.10329819",
    "lon": "-84.41860199",
    "timezone": "-5"
  },
  {
    "name": "Hartsfield Jackson Atlanta Intl",
    "city": "Atlanta",
    "country": "United States",
    "IATA": "ATL",
    "ICAO": "KATL",
    "lat": "33.6367",
    "lon": "-84.428101",
    "timezone": "-5"
  },
  {
    "name": "Castle",
    "city": "Merced",
    "country": "United States",
    "IATA": "MER",
    "ICAO": "KMER",
    "lat": "37.38050079",
    "lon": "-120.5680008",
    "timezone": "-8"
  },
  {
    "name": "Mc Clellan Airfield",
    "city": "Sacramento",
    "country": "United States",
    "IATA": "MCC",
    "ICAO": "KMCC",
    "lat": "38.66759872",
    "lon": "-121.401001",
    "timezone": "-8"
  },
  {
    "name": "Gerald R. Ford Intl",
    "city": "Grand Rapids",
    "country": "United States",
    "IATA": "GRR",
    "ICAO": "KGRR",
    "lat": "42.88079834",
    "lon": "-85.52279663",
    "timezone": "-5"
  },
  {
    "name": "Winkler County",
    "city": "Wink",
    "country": "United States",
    "IATA": "INK",
    "ICAO": "KINK",
    "lat": "31.779600143399996",
    "lon": "-103.200996399",
    "timezone": "-6"
  },
  {
    "name": "Fresno Yosemite Intl",
    "city": "Fresno",
    "country": "United States",
    "IATA": "FAT",
    "ICAO": "KFAT",
    "lat": "36.77619934082031",
    "lon": "-119.71800231933594",
    "timezone": "-8"
  },
  {
    "name": "Vero Beach Regional",
    "city": "Vero Beach",
    "country": "United States",
    "IATA": "VRB",
    "ICAO": "KVRB",
    "lat": "27.6556",
    "lon": "-80.417901",
    "timezone": "-5"
  },
  {
    "name": "Imperial County",
    "city": "Imperial",
    "country": "United States",
    "IATA": "IPL",
    "ICAO": "KIPL",
    "lat": "32.834201812699995",
    "lon": "-115.57900238",
    "timezone": "-8"
  },
  {
    "name": "Nashville Intl",
    "city": "Nashville",
    "country": "United States",
    "IATA": "BNA",
    "ICAO": "KBNA",
    "lat": "36.1245002746582",
    "lon": "-86.6781997680664",
    "timezone": "-6"
  },
  {
    "name": "Laredo Intl",
    "city": "Laredo",
    "country": "United States",
    "IATA": "LRD",
    "ICAO": "KLRD",
    "lat": "27.543800354003906",
    "lon": "-99.46160125732422",
    "timezone": "-6"
  },
  {
    "name": "Elmendorf Air Force Base",
    "city": "Anchorage",
    "country": "United States",
    "IATA": "EDF",
    "ICAO": "PAED",
    "lat": "61.250999450683594",
    "lon": "-149.8070068359375",
    "timezone": "-9"
  },
  {
    "name": "Ralph Wien Memorial",
    "city": "Kotzebue",
    "country": "United States",
    "IATA": "OTZ",
    "ICAO": "PAOT",
    "lat": "66.88469696",
    "lon": "-162.598999",
    "timezone": "-9"
  },
  {
    "name": "Altoona Blair County",
    "city": "Altoona",
    "country": "United States",
    "IATA": "AOO",
    "ICAO": "KAOO",
    "lat": "40.29639816",
    "lon": "-78.31999969",
    "timezone": "-5"
  },
  {
    "name": "Dyess Air Force Base",
    "city": "Abilene",
    "country": "United States",
    "IATA": "DYS",
    "ICAO": "KDYS",
    "lat": "32.4207992554",
    "lon": "-99.854598999",
    "timezone": "-6"
  },
  {
    "name": "South Arkansas Regional At Goodwin Field",
    "city": "El Dorado",
    "country": "United States",
    "IATA": "ELD",
    "ICAO": "KELD",
    "lat": "33.22100067138672",
    "lon": "-92.81330108642578",
    "timezone": "-6"
  },
  {
    "name": "La Guardia",
    "city": "New York",
    "country": "United States",
    "IATA": "LGA",
    "ICAO": "KLGA",
    "lat": "40.77719879",
    "lon": "-73.87259674",
    "timezone": "-5"
  },
  {
    "name": "Tallahassee Regional",
    "city": "Tallahassee",
    "country": "United States",
    "IATA": "TLH",
    "ICAO": "KTLH",
    "lat": "30.396499633789062",
    "lon": "-84.35030364990234",
    "timezone": "-5"
  },
  {
    "name": "Dupage",
    "city": "West Chicago",
    "country": "United States",
    "IATA": "DPA",
    "ICAO": "KDPA",
    "lat": "41.90779877",
    "lon": "-88.24859619",
    "timezone": "-6"
  },
  {
    "name": "Waco Regional",
    "city": "Waco",
    "country": "United States",
    "IATA": "ACT",
    "ICAO": "KACT",
    "lat": "31.611299514770508",
    "lon": "-97.23049926757812",
    "timezone": "-6"
  },
  {
    "name": "Augusta State",
    "city": "Augusta",
    "country": "United States",
    "IATA": "AUG",
    "ICAO": "KAUG",
    "lat": "44.320598602299995",
    "lon": "-69.7973022461",
    "timezone": "-5"
  },
  {
    "name": "Hillsboro Municipal",
    "city": "Hillsboro",
    "country": "United States",
    "IATA": "\\N",
    "ICAO": "KINJ",
    "lat": "32.08349991",
    "lon": "-97.09719849",
    "timezone": "-6"
  },
  {
    "name": "Jacksonville Naval Air Station (Towers Field)",
    "city": "Jacksonville",
    "country": "United States",
    "IATA": "NIP",
    "ICAO": "KNIP",
    "lat": "30.2358",
    "lon": "-81.680603",
    "timezone": "-5"
  },
  {
    "name": "McKellar-Sipes Regional",
    "city": "Jackson",
    "country": "United States",
    "IATA": "MKL",
    "ICAO": "KMKL",
    "lat": "35.599899",
    "lon": "-88.915604",
    "timezone": "-6"
  },
  {
    "name": "Molokai",
    "city": "Molokai",
    "country": "United States",
    "IATA": "MKK",
    "ICAO": "PHMK",
    "lat": "21.15290069580078",
    "lon": "-157.0959930419922",
    "timezone": "-10"
  },
  {
    "name": "Godman Army Air Field",
    "city": "Fort Knox",
    "country": "United States",
    "IATA": "FTK",
    "ICAO": "KFTK",
    "lat": "37.907100677500004",
    "lon": "-85.9720993042",
    "timezone": "-5"
  },
  {
    "name": "New River MCAS /H/ /Mccutcheon Fld/",
    "city": "Jacksonville",
    "country": "United States",
    "IATA": "\\N",
    "ICAO": "KNCA",
    "lat": "34.70840073",
    "lon": "-77.43969727",
    "timezone": "-5"
  },
  {
    "name": "San Angelo Regional Mathis Field",
    "city": "San Angelo",
    "country": "United States",
    "IATA": "SJT",
    "ICAO": "KSJT",
    "lat": "31.35770034790039",
    "lon": "-100.49600219726562",
    "timezone": "-6"
  },
  {
    "name": "Calexico Intl",
    "city": "Calexico",
    "country": "United States",
    "IATA": "CXL",
    "ICAO": "KCXL",
    "lat": "32.6694984436",
    "lon": "-115.513000488",
    "timezone": "-8"
  },
  {
    "name": "Chico Municipal",
    "city": "Chico",
    "country": "United States",
    "IATA": "CIC",
    "ICAO": "KCIC",
    "lat": "39.79539871",
    "lon": "-121.8580017",
    "timezone": "-8"
  },
  {
    "name": "Burlington Intl",
    "city": "Burlington",
    "country": "United States",
    "IATA": "BTV",
    "ICAO": "KBTV",
    "lat": "44.471900939899996",
    "lon": "-73.15329742429999",
    "timezone": "-5"
  },
  {
    "name": "Jacksonville Intl",
    "city": "Jacksonville",
    "country": "United States",
    "IATA": "JAX",
    "ICAO": "KJAX",
    "lat": "30.49410057067871",
    "lon": "-81.68789672851562",
    "timezone": "-5"
  },
  {
    "name": "Durango La Plata County",
    "city": "Durango",
    "country": "United States",
    "IATA": "DRO",
    "ICAO": "KDRO",
    "lat": "37.1515007019",
    "lon": "-107.753997803",
    "timezone": "-7"
  },
  {
    "name": "Washington Dulles Intl",
    "city": "Washington",
    "country": "United States",
    "IATA": "IAD",
    "ICAO": "KIAD",
    "lat": "38.94449997",
    "lon": "-77.45580292",
    "timezone": "-5"
  },
  {
    "name": "Easterwood Field",
    "city": "College Station",
    "country": "United States",
    "IATA": "CLL",
    "ICAO": "KCLL",
    "lat": "30.58860016",
    "lon": "-96.36380005",
    "timezone": "-6"
  },
  {
    "name": "Felts Field",
    "city": "Spokane",
    "country": "United States",
    "IATA": "SFF",
    "ICAO": "KSFF",
    "lat": "47.682800292969",
    "lon": "-117.32299804688",
    "timezone": "-8"
  },
  {
    "name": "General Mitchell Intl",
    "city": "Milwaukee",
    "country": "United States",
    "IATA": "MKE",
    "ICAO": "KMKE",
    "lat": "42.947200775146484",
    "lon": "-87.89659881591797",
    "timezone": "-6"
  },
  {
    "name": "Abilene Regional",
    "city": "Abilene",
    "country": "United States",
    "IATA": "ABI",
    "ICAO": "KABI",
    "lat": "32.4113006592",
    "lon": "-99.68190002440001",
    "timezone": "-6"
  },
  {
    "name": "Columbia Regional",
    "city": "Columbia",
    "country": "United States",
    "IATA": "COU",
    "ICAO": "KCOU",
    "lat": "38.81809997558594",
    "lon": "-92.21959686279297",
    "timezone": "-6"
  },
  {
    "name": "Portland Intl",
    "city": "Portland",
    "country": "United States",
    "IATA": "PDX",
    "ICAO": "KPDX",
    "lat": "45.58869934",
    "lon": "-122.5979996",
    "timezone": "-8"
  },
  {
    "name": "Dade Collier Training and Transition",
    "city": "Miami",
    "country": "United States",
    "IATA": "TNT",
    "ICAO": "KTNT",
    "lat": "25.861799240112",
    "lon": "-80.897003173828",
    "timezone": "-5"
  },
  {
    "name": "Palm Beach Intl",
    "city": "West Palm Beach",
    "country": "United States",
    "IATA": "PBI",
    "ICAO": "KPBI",
    "lat": "26.68320083618164",
    "lon": "-80.09559631347656",
    "timezone": "-5"
  },
  {
    "name": "Fort Worth Meacham Intl",
    "city": "Fort Worth",
    "country": "United States",
    "IATA": "FTW",
    "ICAO": "KFTW",
    "lat": "32.819801",
    "lon": "-97.362396",
    "timezone": "-6"
  },
  {
    "name": "Ogdensburg Intl",
    "city": "Ogdensburg",
    "country": "United States",
    "IATA": "OGS",
    "ICAO": "KOGS",
    "lat": "44.6819000244",
    "lon": "-75.46549987790002",
    "timezone": "-5"
  },
  {
    "name": "Cape Cod Coast Guard Air Station",
    "city": "Falmouth",
    "country": "United States",
    "IATA": "FMH",
    "ICAO": "KFMH",
    "lat": "41.6584014893",
    "lon": "-70.5214004517",
    "timezone": "-5"
  },
  {
    "name": "Boeing Field King County Intl",
    "city": "Seattle",
    "country": "United States",
    "IATA": "BFI",
    "ICAO": "KBFI",
    "lat": "47.529998779296875",
    "lon": "-122.302001953125",
    "timezone": "-8"
  },
  {
    "name": "Lackland Air Force Base",
    "city": "San Antonio",
    "country": "United States",
    "IATA": "SKF",
    "ICAO": "KSKF",
    "lat": "29.38419914",
    "lon": "-98.58110046",
    "timezone": "-6"
  },
  {
    "name": "Daniel K Inouye Intl",
    "city": "Honolulu",
    "country": "United States",
    "IATA": "HNL",
    "ICAO": "PHNL",
    "lat": "21.32062",
    "lon": "-157.924228",
    "timezone": "-10"
  },
  {
    "name": "Des Moines Intl",
    "city": "Des Moines",
    "country": "United States",
    "IATA": "DSM",
    "ICAO": "KDSM",
    "lat": "41.534000396728516",
    "lon": "-93.66310119628906",
    "timezone": "-6"
  },
  {
    "name": "Coastal Carolina Regional",
    "city": "New Bern",
    "country": "United States",
    "IATA": "EWN",
    "ICAO": "KEWN",
    "lat": "35.0730018616",
    "lon": "-77.04290008539999",
    "timezone": "-5"
  },
  {
    "name": "San Diego Intl",
    "city": "San Diego",
    "country": "United States",
    "IATA": "SAN",
    "ICAO": "KSAN",
    "lat": "32.7336006165",
    "lon": "-117.190002441",
    "timezone": "-8"
  },
  {
    "name": "Monroe Regional",
    "city": "Monroe",
    "country": "United States",
    "IATA": "MLU",
    "ICAO": "KMLU",
    "lat": "32.51089859008789",
    "lon": "-92.0376968383789",
    "timezone": "-6"
  },
  {
    "name": "Shaw Air Force Base",
    "city": "Sumter",
    "country": "United States",
    "IATA": "SSC",
    "ICAO": "KSSC",
    "lat": "33.97269821",
    "lon": "-80.47059631",
    "timezone": "-5"
  },
  {
    "name": "Ontario Intl",
    "city": "Ontario",
    "country": "United States",
    "IATA": "ONT",
    "ICAO": "KONT",
    "lat": "34.055999755859375",
    "lon": "-117.60099792480469",
    "timezone": "-8"
  },
  {
    "name": "Majors",
    "city": "Greenvile",
    "country": "United States",
    "IATA": "GVT",
    "ICAO": "KGVT",
    "lat": "33.0677986145",
    "lon": "-96.0652999878",
    "timezone": "-6"
  },
  {
    "name": "Roswell Intl Air Center",
    "city": "Roswell",
    "country": "United States",
    "IATA": "ROW",
    "ICAO": "KROW",
    "lat": "33.30160140991211",
    "lon": "-104.53099822998047",
    "timezone": "-7"
  },
  {
    "name": "Coleman A. Young Municipal",
    "city": "Detroit",
    "country": "United States",
    "IATA": "DET",
    "ICAO": "KDET",
    "lat": "42.40919876",
    "lon": "-83.00990295",
    "timezone": "-5"
  },
  {
    "name": "Brownsville South Padre Island Intl",
    "city": "Brownsville",
    "country": "United States",
    "IATA": "BRO",
    "ICAO": "KBRO",
    "lat": "25.90679931640625",
    "lon": "-97.4259033203125",
    "timezone": "-6"
  },
  {
    "name": "Dothan Regional",
    "city": "Dothan",
    "country": "United States",
    "IATA": "DHN",
    "ICAO": "KDHN",
    "lat": "31.321300506591797",
    "lon": "-85.44960021972656",
    "timezone": "-6"
  },
  {
    "name": "Cape May County",
    "city": "Wildwood",
    "country": "United States",
    "IATA": "WWD",
    "ICAO": "KWWD",
    "lat": "39.008499145500004",
    "lon": "-74.9083023071",
    "timezone": "-5"
  },
  {
    "name": "Fallon Naval Air Station",
    "city": "Fallon",
    "country": "United States",
    "IATA": "NFL",
    "ICAO": "KNFL",
    "lat": "39.41659927",
    "lon": "-118.7009964",
    "timezone": "-8"
  },
  {
    "name": "Selfridge Air National Guard Base",
    "city": "Mount Clemens",
    "country": "United States",
    "IATA": "MTC",
    "ICAO": "KMTC",
    "lat": "42.613463",
    "lon": "-82.836919",
    "timezone": "-5"
  },
  {
    "name": "Four Corners Regional",
    "city": "Farmington",
    "country": "United States",
    "IATA": "FMN",
    "ICAO": "KFMN",
    "lat": "36.741199493399996",
    "lon": "-108.230003357",
    "timezone": "-7"
  },
  {
    "name": "Corpus Christi Intl",
    "city": "Corpus Christi",
    "country": "United States",
    "IATA": "CRP",
    "ICAO": "KCRP",
    "lat": "27.77039909362793",
    "lon": "-97.5011978149414",
    "timezone": "-6"
  },
  {
    "name": "Syracuse Hancock Intl",
    "city": "Syracuse",
    "country": "United States",
    "IATA": "SYR",
    "ICAO": "KSYR",
    "lat": "43.11119842529297",
    "lon": "-76.1063003540039",
    "timezone": "-5"
  },
  {
    "name": "Naval Air Station Key West/Boca Chica Field",
    "city": "Key West",
    "country": "United States",
    "IATA": "NQX",
    "ICAO": "KNQX",
    "lat": "24.57579994",
    "lon": "-81.68890381",
    "timezone": "-5"
  },
  {
    "name": "Chicago Midway Intl",
    "city": "Chicago",
    "country": "United States",
    "IATA": "MDW",
    "ICAO": "KMDW",
    "lat": "41.785999",
    "lon": "-87.752403",
    "timezone": "-6"
  },
  {
    "name": "Norman Y. Mineta San Jose Intl",
    "city": "San Jose",
    "country": "United States",
    "IATA": "SJC",
    "ICAO": "KSJC",
    "lat": "37.362598",
    "lon": "-121.929001",
    "timezone": "-8"
  },
  {
    "name": "Lea County Regional",
    "city": "Hobbs",
    "country": "United States",
    "IATA": "HOB",
    "ICAO": "KHOB",
    "lat": "32.6875",
    "lon": "-103.2170029",
    "timezone": "-7"
  },
  {
    "name": "Northeast Philadelphia",
    "city": "Philadelphia",
    "country": "United States",
    "IATA": "PNE",
    "ICAO": "KPNE",
    "lat": "40.081902",
    "lon": "-75.010597",
    "timezone": "-5"
  },
  {
    "name": "Denver Intl",
    "city": "Denver",
    "country": "United States",
    "IATA": "DEN",
    "ICAO": "KDEN",
    "lat": "39.861698150635",
    "lon": "-104.672996521",
    "timezone": "-7"
  },
  {
    "name": "Philadelphia Intl",
    "city": "Philadelphia",
    "country": "United States",
    "IATA": "PHL",
    "ICAO": "KPHL",
    "lat": "39.87189865112305",
    "lon": "-75.24109649658203",
    "timezone": "-5"
  },
  {
    "name": "Sioux Gateway Col. Bud Day Field",
    "city": "Sioux City",
    "country": "United States",
    "IATA": "SUX",
    "ICAO": "KSUX",
    "lat": "42.40259933",
    "lon": "-96.38439941",
    "timezone": "-6"
  },
  {
    "name": "Middle Georgia Regional",
    "city": "Macon",
    "country": "United States",
    "IATA": "MCN",
    "ICAO": "KMCN",
    "lat": "32.69279861450195",
    "lon": "-83.64920043945312",
    "timezone": "-5"
  },
  {
    "name": "Truth Or Consequences Municipal",
    "city": "Truth Or Consequences",
    "country": "United States",
    "IATA": "TCS",
    "ICAO": "KTCS",
    "lat": "33.2369003296",
    "lon": "-107.272003174",
    "timezone": "-7"
  },
  {
    "name": "Palmdale Regional/USAF Plant 42",
    "city": "Palmdale",
    "country": "United States",
    "IATA": "PMD",
    "ICAO": "KPMD",
    "lat": "34.62939835",
    "lon": "-118.0849991",
    "timezone": "-8"
  },
  {
    "name": "Randolph Air Force Base",
    "city": "San Antonio",
    "country": "United States",
    "IATA": "RND",
    "ICAO": "KRND",
    "lat": "29.52969933",
    "lon": "-98.27890015",
    "timezone": "-6"
  },
  {
    "name": "El Centro NAF (Vraciu Field)",
    "city": "El Centro",
    "country": "United States",
    "IATA": "NJK",
    "ICAO": "KNJK",
    "lat": "32.829201",
    "lon": "-115.671996",
    "timezone": "-8"
  },
  {
    "name": "John Glenn Columbus Intl",
    "city": "Columbus",
    "country": "United States",
    "IATA": "CMH",
    "ICAO": "KCMH",
    "lat": "39.998001",
    "lon": "-82.891899",
    "timezone": "-5"
  },
  {
    "name": "Drake Field",
    "city": "Fayetteville",
    "country": "United States",
    "IATA": "FYV",
    "ICAO": "KFYV",
    "lat": "36.00510025024414",
    "lon": "-94.17009735107422",
    "timezone": "-6"
  },
  {
    "name": "Henry Post Army Air Field (Fort Sill)",
    "city": "Fort Sill",
    "country": "United States",
    "IATA": "FSI",
    "ICAO": "KFSI",
    "lat": "34.64979935",
    "lon": "-98.40219879",
    "timezone": "-6"
  },
  {
    "name": "Princeton Municipal",
    "city": "Princeton",
    "country": "United States",
    "IATA": "\\N",
    "ICAO": "KPNM",
    "lat": "45.55989838",
    "lon": "-93.60820007",
    "timezone": "-6"
  },
  {
    "name": "Wright-Patterson Air Force Base",
    "city": "Dayton",
    "country": "United States",
    "IATA": "FFO",
    "ICAO": "KFFO",
    "lat": "39.8260993958",
    "lon": "-84.0483016968",
    "timezone": "-5"
  },
  {
    "name": "Edward G. Pitka Sr",
    "city": "Galena",
    "country": "United States",
    "IATA": "GAL",
    "ICAO": "PAGA",
    "lat": "64.73619843",
    "lon": "-156.9369965",
    "timezone": "-9"
  },
  {
    "name": "Chandler Municipal",
    "city": "Chandler",
    "country": "United States",
    "IATA": "\\N",
    "ICAO": "KCHD",
    "lat": "33.2691",
    "lon": "-111.810997",
    "timezone": "-7"
  },
  {
    "name": "Mineral Wells",
    "city": "Mineral Wells",
    "country": "United States",
    "IATA": "MWL",
    "ICAO": "KMWL",
    "lat": "32.7816009521",
    "lon": "-98.0602035522",
    "timezone": "-6"
  },
  {
    "name": "Mc Connell Air Force Base",
    "city": "Wichita",
    "country": "United States",
    "IATA": "IAB",
    "ICAO": "KIAB",
    "lat": "37.62189865",
    "lon": "-97.26820374",
    "timezone": "-6"
  },
  {
    "name": "New Orleans NAS JRB/Alvin Callender Field",
    "city": "New Orleans",
    "country": "United States",
    "IATA": "NBG",
    "ICAO": "KNBG",
    "lat": "29.82530022",
    "lon": "-90.03500366",
    "timezone": "-6"
  },
  {
    "name": "Beaufort County",
    "city": "Beaufort",
    "country": "United States",
    "IATA": "BFT",
    "ICAO": "KARW",
    "lat": "32.4122009277",
    "lon": "-80.6343994141",
    "timezone": "-5"
  },
  {
    "name": "Texarkana Regional Webb Field",
    "city": "Texarkana",
    "country": "United States",
    "IATA": "TXK",
    "ICAO": "KTXK",
    "lat": "33.45370101928711",
    "lon": "-93.99099731445312",
    "timezone": "-6"
  },
  {
    "name": "Plattsburgh Intl",
    "city": "Plattsburgh",
    "country": "United States",
    "IATA": "PBG",
    "ICAO": "KPBG",
    "lat": "44.650901794433594",
    "lon": "-73.46810150146484",
    "timezone": "-5"
  },
  {
    "name": "Phillips Army Air Field",
    "city": "Aberdeen",
    "country": "United States",
    "IATA": "APG",
    "ICAO": "KAPG",
    "lat": "39.466202",
    "lon": "-76.1688",
    "timezone": "-5"
  },
  {
    "name": "Tucumcari Municipal",
    "city": "Tucumcari",
    "country": "United States",
    "IATA": "TCC",
    "ICAO": "KTCC",
    "lat": "35.182800293",
    "lon": "-103.602996826",
    "timezone": "-7"
  },
  {
    "name": "Ted Stevens Anchorage Intl",
    "city": "Anchorage",
    "country": "United States",
    "IATA": "ANC",
    "ICAO": "PANC",
    "lat": "61.174400329589844",
    "lon": "-149.99600219726562",
    "timezone": "-9"
  },
  {
    "name": "Robert Gray Army Air Field",
    "city": "Killeen",
    "country": "United States",
    "IATA": "GRK",
    "ICAO": "KGRK",
    "lat": "31.067199707",
    "lon": "-97.82890319820001",
    "timezone": "-6"
  },
  {
    "name": "Black Rock",
    "city": "Zuni Pueblo",
    "country": "United States",
    "IATA": "\\N",
    "ICAO": "KZUN",
    "lat": "35.08319854736328",
    "lon": "-108.79199981689453",
    "timezone": "-7"
  },
  {
    "name": "Bellingham Intl",
    "city": "Bellingham",
    "country": "United States",
    "IATA": "BLI",
    "ICAO": "KBLI",
    "lat": "48.79280090332031",
    "lon": "-122.53800201416016",
    "timezone": "-8"
  },
  {
    "name": "Millington-Memphis",
    "city": "Millington",
    "country": "United States",
    "IATA": "NQA",
    "ICAO": "KNQA",
    "lat": "35.356701",
    "lon": "-89.8703",
    "timezone": "-6"
  },
  {
    "name": "Elkins-Randolph Co-Jennings Randolph Field",
    "city": "Elkins",
    "country": "United States",
    "IATA": "EKN",
    "ICAO": "KEKN",
    "lat": "38.88940048",
    "lon": "-79.85710144",
    "timezone": "-5"
  },
  {
    "name": "Hartford Brainard",
    "city": "Hartford",
    "country": "United States",
    "IATA": "HFD",
    "ICAO": "KHFD",
    "lat": "41.736698150635",
    "lon": "-72.649398803711",
    "timezone": "-5"
  },
  {
    "name": "North Central State",
    "city": "Smithfield",
    "country": "United States",
    "IATA": "SFZ",
    "ICAO": "KSFZ",
    "lat": "41.9207992554",
    "lon": "-71.49140167239999",
    "timezone": "-5"
  },
  {
    "name": "Mobile Regional",
    "city": "Mobile",
    "country": "United States",
    "IATA": "MOB",
    "ICAO": "KMOB",
    "lat": "30.691200256348",
    "lon": "-88.242797851562",
    "timezone": "-6"
  },
  {
    "name": "Moffett Federal Airfield",
    "city": "Mountain View",
    "country": "United States",
    "IATA": "NUQ",
    "ICAO": "KNUQ",
    "lat": "37.4161",
    "lon": "-122.049004",
    "timezone": "-8"
  },
  {
    "name": "Santa Fe Municipal",
    "city": "Santa Fe",
    "country": "United States",
    "IATA": "SAF",
    "ICAO": "KSAF",
    "lat": "35.617099762",
    "lon": "-106.088996887",
    "timezone": "-7"
  },
  {
    "name": "Barking Sands",
    "city": "Barking Sands",
    "country": "United States",
    "IATA": "BKH",
    "ICAO": "PHBK",
    "lat": "22.022800445599998",
    "lon": "-159.785003662",
    "timezone": "-10"
  },
  {
    "name": "Beauregard Regional",
    "city": "Deridder",
    "country": "United States",
    "IATA": "DRI",
    "ICAO": "KDRI",
    "lat": "30.8316993713",
    "lon": "-93.33989715579999",
    "timezone": "-6"
  },
  {
    "name": "Bradshaw Army Airfield",
    "city": "Bradshaw Field",
    "country": "United States",
    "IATA": "BSF",
    "ICAO": "PHSF",
    "lat": "19.760099411",
    "lon": "-155.554000854",
    "timezone": "-10"
  },
  {
    "name": "Nogales Intl",
    "city": "Nogales",
    "country": "United States",
    "IATA": "OLS",
    "ICAO": "KOLS",
    "lat": "31.4177",
    "lon": "-110.848",
    "timezone": "-7"
  },
  {
    "name": "Mac Dill Air Force Base",
    "city": "Tampa",
    "country": "United States",
    "IATA": "MCF",
    "ICAO": "KMCF",
    "lat": "27.84930038",
    "lon": "-82.52120209",
    "timezone": "-5"
  },
  {
    "name": "Scott AFB/Midamerica",
    "city": "Belleville",
    "country": "United States",
    "IATA": "BLV",
    "ICAO": "KBLV",
    "lat": "38.5452",
    "lon": "-89.835197",
    "timezone": "-6"
  },
  {
    "name": "Opa-locka Executive",
    "city": "Miami",
    "country": "United States",
    "IATA": "OPF",
    "ICAO": "KOPF",
    "lat": "25.907",
    "lon": "-80.278397",
    "timezone": "-5"
  },
  {
    "name": "Del Rio Intl",
    "city": "Del Rio",
    "country": "United States",
    "IATA": "DRT",
    "ICAO": "KDRT",
    "lat": "29.3742008209",
    "lon": "-100.927001953",
    "timezone": "-6"
  },
  {
    "name": "Southwest Florida Intl",
    "city": "Fort Myers",
    "country": "United States",
    "IATA": "RSW",
    "ICAO": "KRSW",
    "lat": "26.53619956970215",
    "lon": "-81.75520324707031",
    "timezone": "-5"
  },
  {
    "name": "King Salmon",
    "city": "King Salmon",
    "country": "United States",
    "IATA": "AKN",
    "ICAO": "PAKN",
    "lat": "58.67679977",
    "lon": "-156.6490021",
    "timezone": "-9"
  },
  {
    "name": "Muir Army Air Field (Fort Indiantown Gap)",
    "city": "Muir",
    "country": "United States",
    "IATA": "MUI",
    "ICAO": "KMUI",
    "lat": "40.434799",
    "lon": "-76.569397",
    "timezone": "-5"
  },
  {
    "name": "Kapalua",
    "city": "Lahania-kapalua",
    "country": "United States",
    "IATA": "JHM",
    "ICAO": "PHJH",
    "lat": "20.962900161743164",
    "lon": "-156.67300415039062",
    "timezone": "-10"
  },
  {
    "name": "John F Kennedy Intl",
    "city": "New York",
    "country": "United States",
    "IATA": "JFK",
    "ICAO": "KJFK",
    "lat": "40.63980103",
    "lon": "-73.77890015",
    "timezone": "-5"
  },
  {
    "name": "Homestead ARB",
    "city": "Homestead",
    "country": "United States",
    "IATA": "HST",
    "ICAO": "KHST",
    "lat": "25.48859978",
    "lon": "-80.38359833",
    "timezone": "-5"
  },
  {
    "name": "Riverside Municipal",
    "city": "Riverside",
    "country": "United States",
    "IATA": "RAL",
    "ICAO": "KRAL",
    "lat": "33.95190048",
    "lon": "-117.4449997",
    "timezone": "-8"
  },
  {
    "name": "Sherman Army Air Field",
    "city": "Fort Leavenworth",
    "country": "United States",
    "IATA": "FLV",
    "ICAO": "KFLV",
    "lat": "39.3683013916",
    "lon": "-94.9147033691",
    "timezone": "-6"
  },
  {
    "name": "Wallops Flight Facility",
    "city": "Wallops Island",
    "country": "United States",
    "IATA": "WAL",
    "ICAO": "KWAL",
    "lat": "37.9402008057",
    "lon": "-75.4664001465",
    "timezone": "-5"
  },
  {
    "name": "Holloman Air Force Base",
    "city": "Alamogordo",
    "country": "United States",
    "IATA": "HMN",
    "ICAO": "KHMN",
    "lat": "32.8525009155",
    "lon": "-106.107002258",
    "timezone": "-7"
  },
  {
    "name": "Willow Grove Naval Air Station/Joint Reserve Base",
    "city": "Willow Grove",
    "country": "United States",
    "IATA": "NXX",
    "ICAO": "KNXX",
    "lat": "40.19979858",
    "lon": "-75.14820099",
    "timezone": "-5"
  },
  {
    "name": "Cheyenne Regional Jerry Olson Field",
    "city": "Cheyenne",
    "country": "United States",
    "IATA": "CYS",
    "ICAO": "KCYS",
    "lat": "41.15570068",
    "lon": "-104.8119965",
    "timezone": "-7"
  },
  {
    "name": "Stockton Metropolitan",
    "city": "Stockton",
    "country": "United States",
    "IATA": "SCK",
    "ICAO": "KSCK",
    "lat": "37.894199371338",
    "lon": "-121.2379989624",
    "timezone": "-8"
  },
  {
    "name": "Charleston Air Force Base-Intl",
    "city": "Charleston",
    "country": "United States",
    "IATA": "CHS",
    "ICAO": "KCHS",
    "lat": "32.89860153",
    "lon": "-80.04049683",
    "timezone": "-5"
  },
  {
    "name": "Reno Tahoe Intl",
    "city": "Reno",
    "country": "United States",
    "IATA": "RNO",
    "ICAO": "KRNO",
    "lat": "39.49909973144531",
    "lon": "-119.76799774169922",
    "timezone": "-8"
  },
  {
    "name": "Ketchikan Intl",
    "city": "Ketchikan",
    "country": "United States",
    "IATA": "KTN",
    "ICAO": "PAKT",
    "lat": "55.35559845",
    "lon": "-131.7140045",
    "timezone": "-9"
  },
  {
    "name": "Willow Run",
    "city": "Detroit",
    "country": "United States",
    "IATA": "YIP",
    "ICAO": "KYIP",
    "lat": "42.23789978",
    "lon": "-83.53040314",
    "timezone": "-5"
  },
  {
    "name": "Vandenberg Air Force Base",
    "city": "Lompoc",
    "country": "United States",
    "IATA": "VBG",
    "ICAO": "KVBG",
    "lat": "34.7373008728",
    "lon": "-120.583999634",
    "timezone": "-8"
  },
  {
    "name": "Birmingham-Shuttlesworth Intl",
    "city": "Birmingham",
    "country": "United States",
    "IATA": "BHM",
    "ICAO": "KBHM",
    "lat": "33.56290054",
    "lon": "-86.75350189",
    "timezone": "-6"
  },
  {
    "name": "Lakehurst Maxfield Field",
    "city": "Lakehurst",
    "country": "United States",
    "IATA": "NEL",
    "ICAO": "KNEL",
    "lat": "40.03329849",
    "lon": "-74.353302",
    "timezone": "-5"
  },
  {
    "name": "Eareckson Air Station",
    "city": "Shemya",
    "country": "United States",
    "IATA": "SYA",
    "ICAO": "PASY",
    "lat": "52.71229935",
    "lon": "174.1139984",
    "timezone": "-10"
  },
  {
    "name": "Nellis Air Force Base",
    "city": "Las Vegas",
    "country": "United States",
    "IATA": "LSV",
    "ICAO": "KLSV",
    "lat": "36.2361984253",
    "lon": "-115.033996582",
    "timezone": "-8"
  },
  {
    "name": "March ARB",
    "city": "Riverside",
    "country": "United States",
    "IATA": "RIV",
    "ICAO": "KRIV",
    "lat": "33.880699",
    "lon": "-117.259003",
    "timezone": "-8"
  },
  {
    "name": "Modesto City Co-Harry Sham Field",
    "city": "Modesto",
    "country": "United States",
    "IATA": "MOD",
    "ICAO": "KMOD",
    "lat": "37.62580109",
    "lon": "-120.9540024",
    "timezone": "-8"
  },
  {
    "name": "Sacramento Intl",
    "city": "Sacramento",
    "country": "United States",
    "IATA": "SMF",
    "ICAO": "KSMF",
    "lat": "38.69540023803711",
    "lon": "-121.59100341796875",
    "timezone": "-8"
  },
  {
    "name": "Waukegan National",
    "city": "Chicago",
    "country": "United States",
    "IATA": "UGN",
    "ICAO": "KUGN",
    "lat": "42.422199249268",
    "lon": "-87.867897033691",
    "timezone": "-6"
  },
  {
    "name": "City of Colorado Springs Municipal",
    "city": "Colorado Springs",
    "country": "United States",
    "IATA": "COS",
    "ICAO": "KCOS",
    "lat": "38.805801",
    "lon": "-104.700996",
    "timezone": "-7"
  },
  {
    "name": "Buffalo Niagara Intl",
    "city": "Buffalo",
    "country": "United States",
    "IATA": "BUF",
    "ICAO": "KBUF",
    "lat": "42.94049835",
    "lon": "-78.73220062",
    "timezone": "-5"
  },
  {
    "name": "Griffing Sandusky",
    "city": "Sandusky",
    "country": "United States",
    "IATA": "SKY",
    "ICAO": "KSKY",
    "lat": "41.4333992004",
    "lon": "-82.6522979736",
    "timezone": "-5"
  },
  {
    "name": "Snohomish County (Paine Field)",
    "city": "Everett",
    "country": "United States",
    "IATA": "PAE",
    "ICAO": "KPAE",
    "lat": "47.90629959",
    "lon": "-122.2819977",
    "timezone": "-8"
  },
  {
    "name": "Mountain Home Air Force Base",
    "city": "Mountain Home",
    "country": "United States",
    "IATA": "MUO",
    "ICAO": "KMUO",
    "lat": "43.043598",
    "lon": "-115.872002",
    "timezone": "-7"
  },
  {
    "name": "Cedar City Regional",
    "city": "Cedar City",
    "country": "United States",
    "IATA": "CDC",
    "ICAO": "KCDC",
    "lat": "37.70100021362305",
    "lon": "-113.0989990234375",
    "timezone": "-7"
  },
  {
    "name": "Bradley Intl",
    "city": "Windsor Locks",
    "country": "United States",
    "IATA": "BDL",
    "ICAO": "KBDL",
    "lat": "41.9388999939",
    "lon": "-72.68319702149999",
    "timezone": "-5"
  },
  {
    "name": "Mc Allen Miller Intl",
    "city": "Mcallen",
    "country": "United States",
    "IATA": "MFE",
    "ICAO": "KMFE",
    "lat": "26.17580032",
    "lon": "-98.23860168",
    "timezone": "-6"
  },
  {
    "name": "Norfolk Naval Station (Chambers Field)",
    "city": "Norfolk",
    "country": "United States",
    "IATA": "NGU",
    "ICAO": "KNGU",
    "lat": "36.937599",
    "lon": "-76.289299",
    "timezone": "-5"
  },
  {
    "name": "Westover ARB/Metropolitan",
    "city": "Chicopee Falls",
    "country": "United States",
    "IATA": "CEF",
    "ICAO": "KCEF",
    "lat": "42.19400024",
    "lon": "-72.53479767",
    "timezone": "-5"
  },
  {
    "name": "Lubbock Preston Smith Intl",
    "city": "Lubbock",
    "country": "United States",
    "IATA": "LBB",
    "ICAO": "KLBB",
    "lat": "33.663601",
    "lon": "-101.822998",
    "timezone": "-6"
  },
  {
    "name": "Chicago O’Hare Intl",
    "city": "Chicago",
    "country": "United States",
    "IATA": "ORD",
    "ICAO": "KORD",
    "lat": "41.9786",
    "lon": "-87.9048",
    "timezone": "-6"
  },
  {
    "name": "Boca Raton",
    "city": "Boca Raton",
    "country": "United States",
    "IATA": "BCT",
    "ICAO": "KBCT",
    "lat": "26.3784999847",
    "lon": "-80.1076965332",
    "timezone": "-5"
  },
  {
    "name": "Fairbanks Intl",
    "city": "Fairbanks",
    "country": "United States",
    "IATA": "FAI",
    "ICAO": "PAFA",
    "lat": "64.81510162",
    "lon": "-147.8560028",
    "timezone": "-9"
  },
  {
    "name": "Quantico MCAF /Turner field",
    "city": "Quantico",
    "country": "United States",
    "IATA": "\\N",
    "ICAO": "KNYG",
    "lat": "38.50170135",
    "lon": "-77.30529785",
    "timezone": "-5"
  },
  {
    "name": "Cannon Air Force Base",
    "city": "Clovis",
    "country": "United States",
    "IATA": "CVS",
    "ICAO": "KCVS",
    "lat": "34.3828010559",
    "lon": "-103.321998596",
    "timezone": "-7"
  },
  {
    "name": "Kaneohe Bay MCAS (Marion E. Carl Field)",
    "city": "Kaneohe Bay",
    "country": "United States",
    "IATA": "NGF",
    "ICAO": "PHNG",
    "lat": "21.4505004883",
    "lon": "-157.768005371",
    "timezone": "-10"
  },
  {
    "name": "Offutt Air Force Base",
    "city": "Omaha",
    "country": "United States",
    "IATA": "OFF",
    "ICAO": "KOFF",
    "lat": "41.118301391602",
    "lon": "-95.912498474121",
    "timezone": "-6"
  },
  {
    "name": "Gulkana",
    "city": "Gulkana",
    "country": "United States",
    "IATA": "GKN",
    "ICAO": "PAGK",
    "lat": "62.1548996",
    "lon": "-145.4570007",
    "timezone": "-9"
  },
  {
    "name": "Watertown Intl",
    "city": "Watertown",
    "country": "United States",
    "IATA": "ART",
    "ICAO": "KART",
    "lat": "43.99190139770508",
    "lon": "-76.02169799804688",
    "timezone": "-5"
  },
  {
    "name": "Palm Springs Intl",
    "city": "Palm Springs",
    "country": "United States",
    "IATA": "PSP",
    "ICAO": "KPSP",
    "lat": "33.8297004699707",
    "lon": "-116.50700378417969",
    "timezone": "-8"
  },
  {
    "name": "Rick Husband Amarillo Intl",
    "city": "Amarillo",
    "country": "United States",
    "IATA": "AMA",
    "ICAO": "KAMA",
    "lat": "35.219398",
    "lon": "-101.706001",
    "timezone": "-6"
  },
  {
    "name": "Fort Dodge Regional",
    "city": "Fort Dodge",
    "country": "United States",
    "IATA": "FOD",
    "ICAO": "KFOD",
    "lat": "42.55149841",
    "lon": "-94.19259644",
    "timezone": "-6"
  },
  {
    "name": "Barksdale Air Force Base",
    "city": "Shreveport",
    "country": "United States",
    "IATA": "BAD",
    "ICAO": "KBAD",
    "lat": "32.5018005371",
    "lon": "-93.6626968384",
    "timezone": "-6"
  },
  {
    "name": "Topeka Regional – Forbes Field",
    "city": "Topeka",
    "country": "United States",
    "IATA": "FOE",
    "ICAO": "KFOE",
    "lat": "38.950901031499995",
    "lon": "-95.66359710690001",
    "timezone": "-6"
  },
  {
    "name": "Cotulla-La Salle County",
    "city": "Cotulla",
    "country": "United States",
    "IATA": "COT",
    "ICAO": "KCOT",
    "lat": "28.45669937",
    "lon": "-99.22029877",
    "timezone": "-6"
  },
  {
    "name": "Wilmington Intl",
    "city": "Wilmington",
    "country": "United States",
    "IATA": "ILM",
    "ICAO": "KILM",
    "lat": "34.270599365234375",
    "lon": "-77.90260314941406",
    "timezone": "-5"
  },
  {
    "name": "Baton Rouge Metropolitan",
    "city": "Baton Rouge",
    "country": "United States",
    "IATA": "BTR",
    "ICAO": "KBTR",
    "lat": "30.533199",
    "lon": "-91.149597",
    "timezone": "-6"
  },
  {
    "name": "Meridian Naval Air Station",
    "city": "Meridian",
    "country": "United States",
    "IATA": "\\N",
    "ICAO": "KNMM",
    "lat": "32.55210114",
    "lon": "-88.55560303",
    "timezone": "-6"
  },
  {
    "name": "Tyler Pounds Regional",
    "city": "Tyler",
    "country": "United States",
    "IATA": "TYR",
    "ICAO": "KTYR",
    "lat": "32.35409927368164",
    "lon": "-95.40239715576172",
    "timezone": "-6"
  },
  {
    "name": "Baltimore/Washington Intl Thurgood Marshall",
    "city": "Baltimore",
    "country": "United States",
    "IATA": "BWI",
    "ICAO": "KBWI",
    "lat": "39.1754",
    "lon": "-76.668297",
    "timezone": "-5"
  },
  {
    "name": "Hobart Regional",
    "city": "Hobart",
    "country": "United States",
    "IATA": "HBR",
    "ICAO": "KHBR",
    "lat": "34.991317",
    "lon": "-99.051313",
    "timezone": "-6"
  },
  {
    "name": "Lanai",
    "city": "Lanai",
    "country": "United States",
    "IATA": "LNY",
    "ICAO": "PHNY",
    "lat": "20.785600662231445",
    "lon": "-156.9510040283203",
    "timezone": "-10"
  },
  {
    "name": "Alexandria Intl",
    "city": "Alexandria",
    "country": "United States",
    "IATA": "AEX",
    "ICAO": "KAEX",
    "lat": "31.32740020751953",
    "lon": "-92.54979705810547",
    "timezone": "-6"
  },
  {
    "name": "Condron Army Air Field",
    "city": "White Sands",
    "country": "United States",
    "IATA": "WSD",
    "ICAO": "KWSD",
    "lat": "32.34149933",
    "lon": "-106.4029999",
    "timezone": "-7"
  },
  {
    "name": "Cold Bay",
    "city": "Cold Bay",
    "country": "United States",
    "IATA": "CDB",
    "ICAO": "PACD",
    "lat": "55.20610046386719",
    "lon": "-162.72500610351562",
    "timezone": "-9"
  },
  {
    "name": "Tulsa Intl",
    "city": "Tulsa",
    "country": "United States",
    "IATA": "TUL",
    "ICAO": "KTUL",
    "lat": "36.19839859008789",
    "lon": "-95.88809967041016",
    "timezone": "-6"
  },
  {
    "name": "Sitka Rocky Gutierrez",
    "city": "Sitka",
    "country": "United States",
    "IATA": "SIT",
    "ICAO": "PASI",
    "lat": "57.04710006713867",
    "lon": "-135.36199951171875",
    "timezone": "-9"
  },
  {
    "name": "Long Island Mac Arthur",
    "city": "Islip",
    "country": "United States",
    "IATA": "ISP",
    "ICAO": "KISP",
    "lat": "40.79520035",
    "lon": "-73.10019684",
    "timezone": "-5"
  },
  {
    "name": "Minneapolis-St Paul Intl/Wold-Chamberlain",
    "city": "Minneapolis",
    "country": "United States",
    "IATA": "MSP",
    "ICAO": "KMSP",
    "lat": "44.882",
    "lon": "-93.221802",
    "timezone": "-6"
  },
  {
    "name": "New Castle",
    "city": "Wilmington",
    "country": "United States",
    "IATA": "ILG",
    "ICAO": "KILG",
    "lat": "39.67869949",
    "lon": "-75.60649872",
    "timezone": "-5"
  },
  {
    "name": "Unalaska",
    "city": "Unalaska",
    "country": "United States",
    "IATA": "DUT",
    "ICAO": "PADU",
    "lat": "53.900100708",
    "lon": "-166.544006348",
    "timezone": "-9"
  },
  {
    "name": "Louis Armstrong New Orleans Intl",
    "city": "New Orleans",
    "country": "United States",
    "IATA": "MSY",
    "ICAO": "KMSY",
    "lat": "29.99340057373047",
    "lon": "-90.25800323486328",
    "timezone": "-6"
  },
  {
    "name": "Portland Intl Jetport",
    "city": "Portland",
    "country": "United States",
    "IATA": "PWM",
    "ICAO": "KPWM",
    "lat": "43.64619827",
    "lon": "-70.30930328",
    "timezone": "-5"
  },
  {
    "name": "Will Rogers World",
    "city": "Oklahoma City",
    "country": "United States",
    "IATA": "OKC",
    "ICAO": "KOKC",
    "lat": "35.39310073852539",
    "lon": "-97.60070037841797",
    "timezone": "-6"
  },
  {
    "name": "Albany Intl",
    "city": "Albany",
    "country": "United States",
    "IATA": "ALB",
    "ICAO": "KALB",
    "lat": "42.74829864501953",
    "lon": "-73.80169677734375",
    "timezone": "-5"
  },
  {
    "name": "Valdez Pioneer Field",
    "city": "Valdez",
    "country": "United States",
    "IATA": "VDZ",
    "ICAO": "PAVD",
    "lat": "61.13389969",
    "lon": "-146.2480011",
    "timezone": "-9"
  },
  {
    "name": "Langley Air Force Base",
    "city": "Hampton",
    "country": "United States",
    "IATA": "LFI",
    "ICAO": "KLFI",
    "lat": "37.082901001",
    "lon": "-76.360496521",
    "timezone": "-5"
  },
  {
    "name": "John Wayne -Orange County",
    "city": "Santa Ana",
    "country": "United States",
    "IATA": "SNA",
    "ICAO": "KSNA",
    "lat": "33.67570114",
    "lon": "-117.8679962",
    "timezone": "-8"
  },
  {
    "name": "Columbus Air Force Base",
    "city": "Colombus",
    "country": "United States",
    "IATA": "CBM",
    "ICAO": "KCBM",
    "lat": "33.6437988281",
    "lon": "-88.44380187990001",
    "timezone": "-6"
  },